[
  {
    "id": 808,
    "addressLatitude": "33.7476898",
    "AddressLongitude": "-84.3880433",
    "city": "Atlanta",
    "createdBy": 90,
    "createdOn": "2013-07-29 15:01:23.830",
    "isActive": "1",
    "isCatastropheArea": "0",
    "isDeleted": "0",
    "latitude": "",
    "longitude": "",
    "name": "Atlanta",
    "postalCode": "30334",
    "radius": "75",
    "serviceRegionId": 11,
    "stateId": 11,
    "streetAddress": "",
    "timeZoneId": 1
  },
  {
    "id": 809,
    "addressLatitude": "34.257038",
    "AddressLongitude": "-85.1646726",
    "city": "Rome",
    "createdBy": 90,
    "createdOn": "2013-07-29 15:03:22.580",
    "isActive": "0",
    "isCatastropheArea": "0",
    "isDeleted": "0",
    "latitude": "",
    "longitude": "",
    "name": "NW GA",
    "postalCode": "30161",
    "radius": "65",
    "serviceRegionId": 11,
    "stateId": 11,
    "streetAddress": "",
    "timeZoneId": 1
  },
  {
    "id": 810,
    "addressLatitude": "33.5178769",
    "AddressLongitude": "-86.8094808",
    "city": "Birmingham",
    "createdBy": 90,
    "createdOn": "2013-07-29 16:24:16.977",
    "isActive": "0",
    "isCatastropheArea": "0",
    "isDeleted": "1",
    "latitude": "",
    "longitude": "",
    "name": "Birmingham",
    "postalCode": "35203",
    "radius": "55",
    "serviceRegionId": 11,
    "stateId": 1,
    "streetAddress": "",
    "timeZoneId": 2
  },
  {
    "id": 811,
    "addressLatitude": "32.081259",
    "AddressLongitude": "-81.0809848",
    "city": "Savannah",
    "createdBy": 90,
    "createdOn": "2013-07-29 16:26:06.397",
    "isActive": "1",
    "isCatastropheArea": "0",
    "isDeleted": "0",
    "latitude": "",
    "longitude": "",
    "name": "Savannah",
    "postalCode": "31401",
    "radius": "50",
    "serviceRegionId": 11,
    "stateId": 11,
    "streetAddress": "",
    "timeZoneId": 1
  },
  {
    "id": 812,
    "addressLatitude": "32.8399249",
    "AddressLongitude": "-83.639332",
    "city": "Macon",
    "createdBy": 90,
    "createdOn": "2013-07-29 16:29:42.460",
    "isActive": "1",
    "isCatastropheArea": "0",
    "isDeleted": "0",
    "latitude": "",
    "longitude": "",
    "name": "Central GA",
    "postalCode": "31213",
    "radius": "60",
    "serviceRegionId": 11,
    "stateId": 11,
    "streetAddress": "",
    "timeZoneId": 1
  },
  {
    "id": 813,
    "addressLatitude": "34.7364493",
    "AddressLongitude": "-86.5501654",
    "city": "Huntsville",
    "createdBy": 90,
    "createdOn": "2013-07-29 16:31:52.613",
    "isActive": "0",
    "isCatastropheArea": "0",
    "isDeleted": "1",
    "latitude": "",
    "longitude": "",
    "name": "North Alabama",
    "postalCode": "35801",
    "radius": "30",
    "serviceRegionId": 11,
    "stateId": 1,
    "streetAddress": "",
    "timeZoneId": 2
  },
  {
    "id": 814,
    "addressLatitude": "33.9916",
    "AddressLongitude": "-81.0277023",
    "city": "Columbia",
    "createdBy": 90,
    "createdOn": "2013-07-29 16:34:12.030",
    "isActive": "1",
    "isCatastropheArea": "0",
    "isDeleted": "0",
    "latitude": "",
    "longitude": "",
    "name": "Columbia",
    "postalCode": "29225",
    "radius": "30",
    "serviceRegionId": 12,
    "stateId": 41,
    "streetAddress": "",
    "timeZoneId": 1
  },
  {
    "id": 815,
    "addressLatitude": "34.8505552",
    "AddressLongitude": "-82.394",
    "city": "Greenville",
    "createdBy": 90,
    "createdOn": "2013-07-29 16:36:03.400",
    "isActive": "1",
    "isCatastropheArea": "0",
    "isDeleted": "0",
    "latitude": "",
    "longitude": "",
    "name": "Greenville",
    "postalCode": "29601",
    "radius": "60",
    "serviceRegionId": 12,
    "stateId": 41,
    "streetAddress": "",
    "timeZoneId": 1
  },
  {
    "id": 816,
    "addressLatitude": "34.9248667",
    "AddressLongitude": "-81.0250784",
    "city": "Charlotte",
    "createdBy": 90,
    "createdOn": "2013-07-29 16:38:32.787",
    "isActive": "1",
    "isCatastropheArea": "0",
    "isDeleted": "0",
    "latitude": "",
    "longitude": "",
    "name": "Charlotte",
    "postalCode": "29730",
    "radius": "40",
    "serviceRegionId": 12,
    "stateId": 34,
    "streetAddress": "",
    "timeZoneId": 1
  },
  {
    "id": 817,
    "addressLatitude": "36.105232",
    "AddressLongitude": "-80.2042436",
    "city": "Winston Salem",
    "createdBy": 90,
    "createdOn": "2013-07-29 16:42:31.393",
    "isActive": "1",
    "isCatastropheArea": "0",
    "isDeleted": "0",
    "latitude": "",
    "longitude": "",
    "name": "Winston-Salem",
    "postalCode": "27101",
    "radius": "30",
    "serviceRegionId": 12,
    "stateId": 34,
    "streetAddress": "",
    "timeZoneId": 1
  },
  {
    "id": 818,
    "addressLatitude": "36.0730279",
    "AddressLongitude": "-78.2476146",
    "city": "Raleigh",
    "createdBy": 90,
    "createdOn": "2013-07-30 09:42:34.293",
    "isActive": "1",
    "isCatastropheArea": "0",
    "isDeleted": "0",
    "latitude": "",
    "longitude": "",
    "name": "Raleigh",
    "postalCode": "27549",
    "radius": "55",
    "serviceRegionId": 12,
    "stateId": 34,
    "streetAddress": "",
    "timeZoneId": 1
  },
  {
    "id": 819,
    "addressLatitude": "35.1323787",
    "AddressLongitude": "-90.004663",
    "city": "Memphis",
    "createdBy": 90,
    "createdOn": "2013-07-30 09:44:00.190",
    "isActive": "1",
    "isCatastropheArea": "0",
    "isDeleted": "0",
    "latitude": "",
    "longitude": "",
    "name": "Memphis",
    "postalCode": "38104",
    "radius": "60",
    "serviceRegionId": 28,
    "stateId": 43,
    "streetAddress": "",
    "timeZoneId": 2
  },
  {
    "id": 820,
    "addressLatitude": "35.1562307",
    "AddressLongitude": "-85.2825938",
    "city": "Chattanooga",
    "createdBy": 90,
    "createdOn": "2013-07-30 10:01:36.023",
    "isActive": "1",
    "isCatastropheArea": "0",
    "isDeleted": "0",
    "latitude": "",
    "longitude": "",
    "name": "Chattanooga",
    "postalCode": "37415",
    "radius": "30",
    "serviceRegionId": 28,
    "stateId": 43,
    "streetAddress": "",
    "timeZoneId": 1
  },
  {
    "id": 821,
    "addressLatitude": "36.2305398",
    "AddressLongitude": "-86.7718017",
    "city": "Nashville",
    "createdBy": 90,
    "createdOn": "2013-07-30 10:03:40.950",
    "isActive": "1",
    "isCatastropheArea": "0",
    "isDeleted": "0",
    "latitude": "",
    "longitude": "",
    "name": "Nashville",
    "postalCode": "37207",
    "radius": "60",
    "serviceRegionId": 28,
    "stateId": 43,
    "streetAddress": "",
    "timeZoneId": 2
  },
  {
    "id": 822,
    "addressLatitude": "32.3012211",
    "AddressLongitude": "-90.1888679",
    "city": "Jackson",
    "createdBy": 90,
    "createdOn": "2013-07-30 10:05:52.960",
    "isActive": "1",
    "isCatastropheArea": "0",
    "isDeleted": "0",
    "latitude": "",
    "longitude": "",
    "name": "Jackson",
    "postalCode": "39269",
    "radius": "60",
    "serviceRegionId": 13,
    "stateId": 25,
    "streetAddress": "",
    "timeZoneId": 2
  },
  {
    "id": 823,
    "addressLatitude": "29.9514466",
    "AddressLongitude": "-90.0754067",
    "city": "New Orleans",
    "createdBy": 90,
    "createdOn": "2013-07-30 10:07:10.740",
    "isActive": "1",
    "isCatastropheArea": "0",
    "isDeleted": "0",
    "latitude": "",
    "longitude": "",
    "name": "New Orleans",
    "postalCode": "70163",
    "radius": "60",
    "serviceRegionId": 13,
    "stateId": 19,
    "streetAddress": "",
    "timeZoneId": 2
  },
  {
    "id": 824,
    "addressLatitude": "34.7499657",
    "AddressLongitude": "-92.2852014",
    "city": "Little Rock",
    "createdBy": 90,
    "createdOn": "2013-07-30 10:08:27.087",
    "isActive": "1",
    "isCatastropheArea": "0",
    "isDeleted": "0",
    "latitude": "",
    "longitude": "",
    "name": "Little Rock",
    "postalCode": "72201",
    "radius": "55",
    "serviceRegionId": 13,
    "stateId": 4,
    "streetAddress": "",
    "timeZoneId": 2
  },
  {
    "id": 825,
    "addressLatitude": "38.623996",
    "AddressLongitude": "-90.1846217",
    "city": "St Louis",
    "createdBy": 90,
    "createdOn": "2013-07-30 10:10:21.377",
    "isActive": "0",
    "isCatastropheArea": "0",
    "isDeleted": "1",
    "latitude": "",
    "longitude": "",
    "name": "St. Louis",
    "postalCode": "63102",
    "radius": "60",
    "serviceRegionId": 13,
    "stateId": 26,
    "streetAddress": "",
    "timeZoneId": 2
  },
  {
    "id": 826,
    "addressLatitude": "31.3288416",
    "AddressLongitude": "-89.3315894",
    "city": "Hattiesburg",
    "createdBy": 90,
    "createdOn": "2013-07-30 10:13:34.723",
    "isActive": "1",
    "isCatastropheArea": "0",
    "isDeleted": "0",
    "latitude": "",
    "longitude": "",
    "name": "Hattiesburg",
    "postalCode": "39406",
    "radius": "35",
    "serviceRegionId": 13,
    "stateId": 25,
    "streetAddress": "",
    "timeZoneId": 2
  },
  {
    "id": 827,
    "addressLatitude": "38.912068",
    "AddressLongitude": "-77.0190228",
    "city": "Washington",
    "createdBy": 124,
    "createdOn": "2013-07-30 10:14:26.470",
    "isActive": "1",
    "isCatastropheArea": "0",
    "isDeleted": "0",
    "latitude": "",
    "longitude": "",
    "name": "DC Metro",
    "postalCode": "20001",
    "radius": "60",
    "serviceRegionId": 14,
    "stateId": 9,
    "streetAddress": "",
    "timeZoneId": 1
  },
  {
    "id": 829,
    "addressLatitude": "39.2963369",
    "AddressLongitude": "-76.6210539",
    "city": "Baltimore",
    "createdBy": 124,
    "createdOn": "2013-07-30 10:20:15.540",
    "isActive": "1",
    "isCatastropheArea": "0",
    "isDeleted": "0",
    "latitude": "",
    "longitude": "",
    "name": "Baltimore",
    "postalCode": "21201",
    "radius": "60",
    "serviceRegionId": 14,
    "stateId": 21,
    "streetAddress": "",
    "timeZoneId": 1
  },
  {
    "id": 830,
    "addressLatitude": "37.5745428",
    "AddressLongitude": "-77.5433122",
    "city": "Richmond",
    "createdBy": 124,
    "createdOn": "2013-07-30 10:21:09.967",
    "isActive": "1",
    "isCatastropheArea": "0",
    "isDeleted": "0",
    "latitude": "",
    "longitude": "",
    "name": "Richmond",
    "postalCode": "23173",
    "radius": "70",
    "serviceRegionId": 14,
    "stateId": 47,
    "streetAddress": "",
    "timeZoneId": 1
  },
  {
    "id": 831,
    "addressLatitude": "39.9840919",
    "AddressLongitude": "-75.1808035",
    "city": "Philadelphia",
    "createdBy": 90,
    "createdOn": "2013-07-30 10:21:56.177",
    "isActive": "1",
    "isCatastropheArea": "0",
    "isDeleted": "0",
    "latitude": "",
    "longitude": "",
    "name": "Philadelphia",
    "postalCode": "19121",
    "radius": "60",
    "serviceRegionId": 19,
    "stateId": 39,
    "streetAddress": "",
    "timeZoneId": 1
  },
  {
    "id": 832,
    "addressLatitude": "36.85",
    "AddressLongitude": "-75.98",
    "city": "Virginia Beach",
    "createdBy": 124,
    "createdOn": "2013-07-30 10:22:37.437",
    "isActive": "1",
    "isCatastropheArea": "0",
    "isDeleted": "0",
    "latitude": "",
    "longitude": "",
    "name": "Virginia Beach",
    "postalCode": "23450",
    "radius": "60",
    "serviceRegionId": 14,
    "stateId": 47,
    "streetAddress": "",
    "timeZoneId": 1
  },
  {
    "id": 833,
    "addressLatitude": "39.1992128",
    "AddressLongitude": "-75.5533772",
    "city": "Wilmington",
    "createdBy": 124,
    "createdOn": "2013-07-30 10:23:23.910",
    "isActive": "1",
    "isCatastropheArea": "0",
    "isDeleted": "0",
    "latitude": "",
    "longitude": "",
    "name": "Delaware",
    "postalCode": "19901",
    "radius": "30",
    "serviceRegionId": 14,
    "stateId": 8,
    "streetAddress": "",
    "timeZoneId": 1
  },
  {
    "id": 834,
    "addressLatitude": "40.7093358",
    "AddressLongitude": "-73.9565551",
    "city": "Brooklyn",
    "createdBy": 90,
    "createdOn": "2013-07-30 10:24:51.833",
    "isActive": "0",
    "isCatastropheArea": "0",
    "isDeleted": "1",
    "latitude": "",
    "longitude": "",
    "name": "Long Island",
    "postalCode": "11211",
    "radius": "120",
    "serviceRegionId": 19,
    "stateId": 33,
    "streetAddress": "",
    "timeZoneId": 1
  },
  {
    "id": 835,
    "addressLatitude": "38.2331559",
    "AddressLongitude": "-85.4561648",
    "city": "Louisville",
    "createdBy": 124,
    "createdOn": "2013-07-30 10:24:53.410",
    "isActive": "1",
    "isCatastropheArea": "0",
    "isDeleted": "0",
    "latitude": "",
    "longitude": "",
    "name": "Louisville",
    "postalCode": "40018",
    "radius": "35",
    "serviceRegionId": 28,
    "stateId": 18,
    "streetAddress": "",
    "timeZoneId": 1
  },
  {
    "id": 836,
    "addressLatitude": "40.4475255",
    "AddressLongitude": "-79.9933976",
    "city": "Pittsburgh",
    "createdBy": 90,
    "createdOn": "2013-07-30 10:26:10.427",
    "isActive": "1",
    "isCatastropheArea": "0",
    "isDeleted": "0",
    "latitude": "",
    "longitude": "",
    "name": "Pittsburgh",
    "postalCode": "15222",
    "radius": "45",
    "serviceRegionId": 19,
    "stateId": 39,
    "streetAddress": "",
    "timeZoneId": 1
  },
  {
    "id": 837,
    "addressLatitude": "41.4908027",
    "AddressLongitude": "-81.6726759",
    "city": "Cleveland",
    "createdBy": 124,
    "createdOn": "2013-07-30 10:26:20.363",
    "isActive": "1",
    "isCatastropheArea": "0",
    "isDeleted": "0",
    "latitude": "",
    "longitude": "",
    "name": "Cleveland",
    "postalCode": "44101",
    "radius": "50",
    "serviceRegionId": 15,
    "stateId": 36,
    "streetAddress": "",
    "timeZoneId": 1
  },
  {
    "id": 838,
    "addressLatitude": "40.103832",
    "AddressLongitude": "-83.0200245",
    "city": "Columbus",
    "createdBy": 124,
    "createdOn": "2013-07-30 10:27:20.863",
    "isActive": "1",
    "isCatastropheArea": "0",
    "isDeleted": "0",
    "latitude": "",
    "longitude": "",
    "name": "Columbus",
    "postalCode": "43085",
    "radius": "40",
    "serviceRegionId": 15,
    "stateId": 36,
    "streetAddress": "",
    "timeZoneId": 1
  },
  {
    "id": 839,
    "addressLatitude": "41.7663427",
    "AddressLongitude": "-72.6937171",
    "city": "Hartford",
    "createdBy": 90,
    "createdOn": "2013-07-30 10:28:16.290",
    "isActive": "0",
    "isCatastropheArea": "0",
    "isDeleted": "1",
    "latitude": "",
    "longitude": "",
    "name": "Hartford",
    "postalCode": "06160",
    "radius": "1",
    "serviceRegionId": 19,
    "stateId": 7,
    "streetAddress": "",
    "timeZoneId": 1
  },
  {
    "id": 840,
    "addressLatitude": "39.1066354",
    "AddressLongitude": "-84.5363226",
    "city": "Cincinnati",
    "createdBy": 124,
    "createdOn": "2013-07-30 10:28:24.043",
    "isActive": "0",
    "isCatastropheArea": "0",
    "isDeleted": "1",
    "latitude": "",
    "longitude": "",
    "name": "Cincinnati",
    "postalCode": "45201",
    "radius": "40",
    "serviceRegionId": 15,
    "stateId": 36,
    "streetAddress": "",
    "timeZoneId": 1
  },
  {
    "id": 841,
    "addressLatitude": "39.732746",
    "AddressLongitude": "-104.9710123",
    "city": "Denver",
    "createdBy": 90,
    "createdOn": "2013-07-30 10:29:33.680",
    "isActive": "1",
    "isCatastropheArea": "0",
    "isDeleted": "0",
    "latitude": "",
    "longitude": "",
    "name": "Denver",
    "postalCode": "80218",
    "radius": "100",
    "serviceRegionId": 18,
    "stateId": 6,
    "streetAddress": "",
    "timeZoneId": 3
  },
  {
    "id": 842,
    "addressLatitude": "41.9003099",
    "AddressLongitude": "-87.6333871",
    "city": "Chicago",
    "createdBy": 124,
    "createdOn": "2013-07-30 10:30:42.387",
    "isActive": "0",
    "isCatastropheArea": "0",
    "isDeleted": "1",
    "latitude": "",
    "longitude": "",
    "name": "Chicago",
    "postalCode": "60610",
    "radius": "20",
    "serviceRegionId": 16,
    "stateId": 14,
    "streetAddress": "",
    "timeZoneId": 1
  },
  {
    "id": 843,
    "addressLatitude": "32.7811446",
    "AddressLongitude": "-97.0175879",
    "city": "Dallas",
    "createdBy": 90,
    "createdOn": "2013-07-30 10:31:28.267",
    "isActive": "1",
    "isCatastropheArea": "0",
    "isDeleted": "0",
    "latitude": "",
    "longitude": "",
    "name": "Dallas/Ft.Worth",
    "postalCode": "75050",
    "radius": "100",
    "serviceRegionId": 17,
    "stateId": 44,
    "streetAddress": "",
    "timeZoneId": 2
  },
  {
    "id": 844,
    "addressLatitude": "33.9000366",
    "AddressLongitude": "-98.478759",
    "city": "Wichita Falls",
    "createdBy": 90,
    "createdOn": "2013-07-30 10:32:43.490",
    "isActive": "0",
    "isCatastropheArea": "0",
    "isDeleted": "1",
    "latitude": "",
    "longitude": "",
    "name": "Wichita Falls",
    "postalCode": "76301",
    "radius": "60",
    "serviceRegionId": 17,
    "stateId": 44,
    "streetAddress": "",
    "timeZoneId": 2
  },
  {
    "id": 845,
    "addressLatitude": "43.3224055",
    "AddressLongitude": "-88.0411993",
    "city": "Milwaukee",
    "createdBy": 124,
    "createdOn": "2013-07-30 10:32:53.317",
    "isActive": "1",
    "isCatastropheArea": "0",
    "isDeleted": "0",
    "latitude": "",
    "longitude": "",
    "name": "Milwaukee",
    "postalCode": "53012",
    "radius": "55",
    "serviceRegionId": 16,
    "stateId": 50,
    "streetAddress": "",
    "timeZoneId": 1
  },
  {
    "id": 846,
    "addressLatitude": "44.9748419",
    "AddressLongitude": "-93.1811141",
    "city": "St Paul",
    "createdBy": 124,
    "createdOn": "2013-07-30 10:34:04.423",
    "isActive": "0",
    "isCatastropheArea": "0",
    "isDeleted": "0",
    "latitude": "",
    "longitude": "",
    "name": "St Paul",
    "postalCode": "55974",
    "radius": "60",
    "serviceRegionId": 16,
    "stateId": 24,
    "streetAddress": "",
    "timeZoneId": 1
  },
  {
    "id": 847,
    "addressLatitude": "35.578861",
    "AddressLongitude": "-97.5788975",
    "city": "Oklahoma City",
    "createdBy": 90,
    "createdOn": "2013-07-30 10:34:33.250",
    "isActive": "1",
    "isCatastropheArea": "0",
    "isDeleted": "0",
    "latitude": "",
    "longitude": "",
    "name": "OKC",
    "postalCode": "73120",
    "radius": "75",
    "serviceRegionId": 17,
    "stateId": 37,
    "streetAddress": "",
    "timeZoneId": 2
  },
  {
    "id": 848,
    "addressLatitude": "42.6757698",
    "AddressLongitude": "-73.7860276",
    "city": "Albany",
    "createdBy": 124,
    "createdOn": "2013-07-30 16:38:54.123",
    "isActive": "1",
    "isCatastropheArea": "0",
    "isDeleted": "1",
    "latitude": "",
    "longitude": "",
    "name": "Albany",
    "postalCode": "12206",
    "radius": "60",
    "serviceRegionId": 19,
    "stateId": 33,
    "streetAddress": "",
    "timeZoneId": 1
  },
  {
    "id": 849,
    "addressLatitude": "39.829875",
    "AddressLongitude": "-86.1395598",
    "city": "Indianapolis",
    "createdBy": 252,
    "createdOn": "2013-07-31 08:38:20.707",
    "isActive": "0",
    "isCatastropheArea": "0",
    "isDeleted": "1",
    "latitude": "",
    "longitude": "",
    "name": "Indianapolis",
    "postalCode": "46205",
    "radius": "45",
    "serviceRegionId": 15,
    "stateId": 15,
    "streetAddress": "",
    "timeZoneId": 2
  },
  {
    "id": 850,
    "addressLatitude": "37.7564665",
    "AddressLongitude": "-97.4056928",
    "city": "Wichita",
    "createdBy": 252,
    "createdOn": "2013-07-31 09:08:48.123",
    "isActive": "0",
    "isCatastropheArea": "0",
    "isDeleted": "1",
    "latitude": "",
    "longitude": "",
    "name": "Wichita",
    "postalCode": "67205",
    "radius": "60",
    "serviceRegionId": 17,
    "stateId": 17,
    "streetAddress": "",
    "timeZoneId": 1
  },
  {
    "id": 851,
    "addressLatitude": "37.7729273",
    "AddressLongitude": "-122.2143323",
    "city": "Oakland",
    "createdBy": 252,
    "createdOn": "2013-08-14 14:21:21.867",
    "isActive": "0",
    "isCatastropheArea": "1",
    "isDeleted": "0",
    "latitude": "",
    "longitude": "",
    "name": "San Francisco",
    "postalCode": "94601",
    "radius": "75",
    "serviceRegionId": 20,
    "stateId": 5,
    "streetAddress": "",
    "timeZoneId": 4
  },
  {
    "id": 852,
    "addressLatitude": "33.4867779",
    "AddressLongitude": "-112.0773053",
    "city": "PHOENIX",
    "createdBy": 256,
    "createdOn": "2013-08-30 16:07:03.550",
    "isActive": "1",
    "isCatastropheArea": "0",
    "isDeleted": "0",
    "latitude": "",
    "longitude": "",
    "name": "Phoenix",
    "postalCode": "85013",
    "radius": "45",
    "serviceRegionId": 17,
    "stateId": 3,
    "streetAddress": "217 WEST OSBORN ROAD ",
    "timeZoneId": 3
  },
  {
    "id": 853,
    "addressLatitude": "42.3787402",
    "AddressLongitude": "-83.1970511",
    "city": "Detroit",
    "createdBy": 256,
    "createdOn": "2013-08-30 16:12:19.453",
    "isActive": "0",
    "isCatastropheArea": "0",
    "isDeleted": "1",
    "latitude": "",
    "longitude": "",
    "name": "Detroit",
    "postalCode": "48227",
    "radius": "60",
    "serviceRegionId": 15,
    "stateId": 23,
    "streetAddress": "",
    "timeZoneId": 1
  },
  {
    "id": 854,
    "addressLatitude": "32.3989318",
    "AddressLongitude": "-86.3224638",
    "city": "Montgomery",
    "createdBy": 256,
    "createdOn": "2013-12-03 12:03:29.653",
    "isActive": "0",
    "isCatastropheArea": "0",
    "isDeleted": "1",
    "latitude": "",
    "longitude": "",
    "name": "Montgomery",
    "postalCode": "36104",
    "radius": "10",
    "serviceRegionId": 11,
    "stateId": 1,
    "streetAddress": "",
    "timeZoneId": 2
  },
  {
    "id": 855,
    "addressLatitude": "27.9401015",
    "AddressLongitude": "-82.4501944",
    "city": "Tampa",
    "createdBy": 256,
    "createdOn": "2013-12-03 13:25:18.667",
    "isActive": "0",
    "isCatastropheArea": "0",
    "isDeleted": "1",
    "latitude": "",
    "longitude": "",
    "name": "Tampa",
    "postalCode": "33601",
    "radius": "1",
    "serviceRegionId": 11,
    "stateId": 10,
    "streetAddress": "",
    "timeZoneId": 1
  },
  {
    "id": 856,
    "addressLatitude": "29.542044",
    "AddressLongitude": "-98.555621",
    "city": "SAN ANTONIO",
    "createdBy": 256,
    "createdOn": "2013-12-03 14:33:48.347",
    "isActive": "1",
    "isCatastropheArea": "0",
    "isDeleted": "0",
    "latitude": "",
    "longitude": "",
    "name": "San Antonio",
    "postalCode": "78230",
    "radius": "50",
    "serviceRegionId": 17,
    "stateId": 44,
    "streetAddress": "",
    "timeZoneId": 1
  },
  {
    "id": 857,
    "addressLatitude": "40.597879",
    "AddressLongitude": "-105.0576488",
    "city": "FORT COLLINS",
    "createdBy": 256,
    "createdOn": "2013-12-03 14:36:38.013",
    "isActive": "1",
    "isCatastropheArea": "0",
    "isDeleted": "0",
    "latitude": "",
    "longitude": "",
    "name": "Fort Collins",
    "postalCode": "80524",
    "radius": "30",
    "serviceRegionId": 18,
    "stateId": 6,
    "streetAddress": "1234 MAIN ST",
    "timeZoneId": 3
  },
  {
    "id": 858,
    "addressLatitude": "43.5147831",
    "AddressLongitude": "-96.7744956",
    "city": "Sioux Falls",
    "createdBy": 256,
    "createdOn": "2013-12-03 14:44:33.380",
    "isActive": "0",
    "isCatastropheArea": "0",
    "isDeleted": "1",
    "latitude": "",
    "longitude": "",
    "name": "Z Status",
    "postalCode": "57101",
    "radius": "10",
    "serviceRegionId": 18,
    "stateId": 42,
    "streetAddress": "",
    "timeZoneId": 1
  },
  {
    "id": 859,
    "addressLatitude": null,
    "AddressLongitude": null,
    "city": "Sioux Falls",
    "createdBy": 256,
    "createdOn": "2013-12-04 08:03:05.503",
    "isActive": "0",
    "isCatastropheArea": "0",
    "isDeleted": "0",
    "latitude": "",
    "longitude": "",
    "name": "Former Technicians",
    "postalCode": "57101",
    "radius": "10",
    "serviceRegionId": 18,
    "stateId": 42,
    "streetAddress": "",
    "timeZoneId": 1
  },
  {
    "id": 860,
    "addressLatitude": "35.1322706",
    "AddressLongitude": "-106.4994889",
    "city": "Albuquerque",
    "createdBy": 256,
    "createdOn": "2014-01-09 12:32:21.693",
    "isActive": "1",
    "isCatastropheArea": "0",
    "isDeleted": "0",
    "latitude": "",
    "longitude": "",
    "name": "Cancellation Fee",
    "postalCode": "87111",
    "radius": "5",
    "serviceRegionId": 21,
    "stateId": 32,
    "streetAddress": "",
    "timeZoneId": 1
  },
  {
    "id": 861,
    "addressLatitude": "35.8197917",
    "AddressLongitude": "-88.9158953",
    "city": "Humboldt",
    "createdBy": 256,
    "createdOn": "2014-01-27 15:23:27.587",
    "isActive": "0",
    "isCatastropheArea": "0",
    "isDeleted": "1",
    "latitude": "",
    "longitude": "",
    "name": "Humboldt",
    "postalCode": "38343",
    "radius": "50",
    "serviceRegionId": 13,
    "stateId": 43,
    "streetAddress": "",
    "timeZoneId": 1
  },
  {
    "id": 862,
    "addressLatitude": "35.9604682",
    "AddressLongitude": "-83.9194151",
    "city": "Knoxville",
    "createdBy": 256,
    "createdOn": "2014-01-27 15:33:51.797",
    "isActive": "1",
    "isCatastropheArea": "0",
    "isDeleted": "0",
    "latitude": "",
    "longitude": "",
    "name": "Knoxville",
    "postalCode": "37901",
    "radius": "50",
    "serviceRegionId": 28,
    "stateId": 43,
    "streetAddress": "",
    "timeZoneId": 1
  },
  {
    "id": 863,
    "addressLatitude": "43.6153549",
    "AddressLongitude": "-72.9224329",
    "city": "Rutland",
    "createdBy": 256,
    "createdOn": "2014-01-27 15:44:57.863",
    "isActive": "0",
    "isCatastropheArea": "0",
    "isDeleted": "1",
    "latitude": "",
    "longitude": "",
    "name": "Rutland",
    "postalCode": "05701",
    "radius": "1",
    "serviceRegionId": 19,
    "stateId": 46,
    "streetAddress": "",
    "timeZoneId": 1
  },
  {
    "id": 864,
    "addressLatitude": "42.3548561",
    "AddressLongitude": "-71.0661193",
    "city": "Boston",
    "createdBy": 256,
    "createdOn": "2014-01-27 15:49:09.070",
    "isActive": "0",
    "isCatastropheArea": "0",
    "isDeleted": "1",
    "latitude": "",
    "longitude": "",
    "name": "Boston",
    "postalCode": "02108",
    "radius": "1",
    "serviceRegionId": 19,
    "stateId": 22,
    "streetAddress": "",
    "timeZoneId": 1
  },
  {
    "id": 865,
    "addressLatitude": "39.9721149",
    "AddressLongitude": "-76.6528225",
    "city": "York",
    "createdBy": 256,
    "createdOn": "2014-01-27 15:52:11.173",
    "isActive": "1",
    "isCatastropheArea": "0",
    "isDeleted": "0",
    "latitude": "",
    "longitude": "",
    "name": "York",
    "postalCode": "17402",
    "radius": "50",
    "serviceRegionId": 19,
    "stateId": 39,
    "streetAddress": "",
    "timeZoneId": 1
  },
  {
    "id": 866,
    "addressLatitude": "40.6572331",
    "AddressLongitude": "-75.4985521",
    "city": "Allentown",
    "createdBy": 256,
    "createdOn": "2014-01-27 15:53:02.840",
    "isActive": "1",
    "isCatastropheArea": "0",
    "isDeleted": "0",
    "latitude": "",
    "longitude": "",
    "name": "Allentown",
    "postalCode": "18052",
    "radius": "60",
    "serviceRegionId": 19,
    "stateId": 39,
    "streetAddress": "",
    "timeZoneId": 1
  },
  {
    "id": 867,
    "addressLatitude": "40.3380072",
    "AddressLongitude": "-75.9753516",
    "city": "Reading",
    "createdBy": 256,
    "createdOn": "2014-01-27 15:56:59.837",
    "isActive": "1",
    "isCatastropheArea": "0",
    "isDeleted": "0",
    "latitude": "",
    "longitude": "",
    "name": "Reading",
    "postalCode": "19610",
    "radius": "25",
    "serviceRegionId": 19,
    "stateId": 39,
    "streetAddress": "",
    "timeZoneId": 1
  },
  {
    "id": 868,
    "addressLatitude": "30.3276337",
    "AddressLongitude": "-81.6555607",
    "city": "Jacksonville",
    "createdBy": 256,
    "createdOn": "2014-01-27 15:58:27.293",
    "isActive": "0",
    "isCatastropheArea": "0",
    "isDeleted": "1",
    "latitude": "",
    "longitude": "",
    "name": "Jacksonville",
    "postalCode": "32202",
    "radius": "1",
    "serviceRegionId": 11,
    "stateId": 10,
    "streetAddress": "",
    "timeZoneId": 1
  },
  {
    "id": 869,
    "addressLatitude": "28.5950986",
    "AddressLongitude": "-81.3509416",
    "city": "Orlando",
    "createdBy": 256,
    "createdOn": "2014-01-27 15:58:52.610",
    "isActive": "0",
    "isCatastropheArea": "0",
    "isDeleted": "1",
    "latitude": "",
    "longitude": "",
    "name": "Orlando",
    "postalCode": "32789",
    "radius": "1",
    "serviceRegionId": 11,
    "stateId": 10,
    "streetAddress": "",
    "timeZoneId": 1
  },
  {
    "id": 870,
    "addressLatitude": "30.2228447",
    "AddressLongitude": "-97.7473572",
    "city": "Austin",
    "createdBy": 256,
    "createdOn": "2014-01-27 16:01:14.993",
    "isActive": "1",
    "isCatastropheArea": "0",
    "isDeleted": "0",
    "latitude": "",
    "longitude": "",
    "name": "Austin",
    "postalCode": "73301",
    "radius": "50",
    "serviceRegionId": 17,
    "stateId": 44,
    "streetAddress": "",
    "timeZoneId": 1
  },
  {
    "id": 871,
    "addressLatitude": "42.9616689",
    "AddressLongitude": "-85.6588999",
    "city": "Grand Rapids",
    "createdBy": 256,
    "createdOn": "2014-01-27 16:02:41.293",
    "isActive": "0",
    "isCatastropheArea": "0",
    "isDeleted": "1",
    "latitude": "",
    "longitude": "",
    "name": "Grand Rapids",
    "postalCode": "49503 ",
    "radius": "50",
    "serviceRegionId": 15,
    "stateId": 23,
    "streetAddress": "",
    "timeZoneId": 1
  },
  {
    "id": 872,
    "addressLatitude": "44.5176348",
    "AddressLongitude": "-88.2266434",
    "city": "Green Bay",
    "createdBy": 256,
    "createdOn": "2014-01-27 16:06:25.500",
    "isActive": "0",
    "isCatastropheArea": "0",
    "isDeleted": "0",
    "latitude": "",
    "longitude": "",
    "name": "Green Bay",
    "postalCode": "54155",
    "radius": "60",
    "serviceRegionId": 16,
    "stateId": 50,
    "streetAddress": "",
    "timeZoneId": 1
  },
  {
    "id": 873,
    "addressLatitude": "38.798332",
    "AddressLongitude": "-104.9505671",
    "city": "Colorado Springs",
    "createdBy": 256,
    "createdOn": "2014-01-27 16:11:12.433",
    "isActive": "1",
    "isCatastropheArea": "0",
    "isDeleted": "0",
    "latitude": "",
    "longitude": "",
    "name": "Colorado Springs",
    "postalCode": "80829",
    "radius": "60",
    "serviceRegionId": 18,
    "stateId": 6,
    "streetAddress": "",
    "timeZoneId": 1
  },
  {
    "id": 874,
    "addressLatitude": "44.9836543",
    "AddressLongitude": "-93.2693572",
    "city": "Minneapolis",
    "createdBy": 256,
    "createdOn": "2014-01-27 16:12:41.587",
    "isActive": "1",
    "isCatastropheArea": "0",
    "isDeleted": "0",
    "latitude": "",
    "longitude": "",
    "name": "Minneapolis",
    "postalCode": "55401",
    "radius": "60",
    "serviceRegionId": 16,
    "stateId": 24,
    "streetAddress": "",
    "timeZoneId": 1
  },
  {
    "id": 875,
    "addressLatitude": "38.013412",
    "AddressLongitude": "-84.485507",
    "city": "Lexington",
    "createdBy": 256,
    "createdOn": "2014-01-27 16:14:57.263",
    "isActive": "1",
    "isCatastropheArea": "0",
    "isDeleted": "0",
    "latitude": "",
    "longitude": "",
    "name": "Lexington",
    "postalCode": "40502",
    "radius": "20",
    "serviceRegionId": 28,
    "stateId": 18,
    "streetAddress": "",
    "timeZoneId": 1
  },
  {
    "id": 876,
    "addressLatitude": "41.7452071",
    "AddressLongitude": "-86.1242881",
    "city": "South Bend",
    "createdBy": 256,
    "createdOn": "2014-01-27 16:19:24.510",
    "isActive": "0",
    "isCatastropheArea": "0",
    "isDeleted": "1",
    "latitude": "",
    "longitude": "",
    "name": "Northern Indiana",
    "postalCode": "46530",
    "radius": "50",
    "serviceRegionId": 15,
    "stateId": 15,
    "streetAddress": "",
    "timeZoneId": 1
  },
  {
    "id": 877,
    "addressLatitude": "44.0637173",
    "AddressLongitude": "-123.0847061",
    "city": "Eugene",
    "createdBy": 256,
    "createdOn": "2014-02-20 14:28:37.790",
    "isActive": "0",
    "isCatastropheArea": "0",
    "isDeleted": "0",
    "latitude": "",
    "longitude": "",
    "name": "Oregon",
    "postalCode": "97401",
    "radius": "60",
    "serviceRegionId": 18,
    "stateId": 38,
    "streetAddress": "",
    "timeZoneId": 1
  },
  {
    "id": 878,
    "addressLatitude": "39.1041725",
    "AddressLongitude": "-94.5998517",
    "city": "Kansas City",
    "createdBy": 124,
    "createdOn": "2014-02-24 08:39:30.890",
    "isActive": "0",
    "isCatastropheArea": "0",
    "isDeleted": "1",
    "latitude": "",
    "longitude": "",
    "name": "Kansas City",
    "postalCode": "64101",
    "radius": "45",
    "serviceRegionId": 13,
    "stateId": 26,
    "streetAddress": "",
    "timeZoneId": 1
  },
  {
    "id": 879,
    "addressLatitude": "34.1147313",
    "AddressLongitude": "-118.3637264",
    "city": "Los Angeles",
    "createdBy": 256,
    "createdOn": "2014-03-13 14:43:50.133",
    "isActive": "1",
    "isCatastropheArea": "0",
    "isDeleted": "0",
    "latitude": "",
    "longitude": "",
    "name": "Los Angeles",
    "postalCode": "90046",
    "radius": "88",
    "serviceRegionId": 18,
    "stateId": 5,
    "streetAddress": "",
    "timeZoneId": 1
  },
  {
    "id": 880,
    "addressLatitude": "66.075713",
    "AddressLongitude": "-162.71822",
    "city": "Deering",
    "createdBy": 256,
    "createdOn": "2014-04-09 13:10:20.713",
    "isActive": "1",
    "isCatastropheArea": "0",
    "isDeleted": "0",
    "latitude": "",
    "longitude": "",
    "name": "Deering",
    "postalCode": "99736",
    "radius": "30",
    "serviceRegionId": 22,
    "stateId": 2,
    "streetAddress": "",
    "timeZoneId": 4
  },
  {
    "id": 881,
    "addressLatitude": "61.3008086",
    "AddressLongitude": "-149.7106353",
    "city": "Anchorage",
    "createdBy": 256,
    "createdOn": "2014-04-09 13:12:12.550",
    "isActive": "1",
    "isCatastropheArea": "0",
    "isDeleted": "0",
    "latitude": "",
    "longitude": "",
    "name": "Anchorage",
    "postalCode": "99505",
    "radius": "300",
    "serviceRegionId": 22,
    "stateId": 2,
    "streetAddress": "",
    "timeZoneId": 1
  },
  {
    "id": 882,
    "addressLatitude": "64.84",
    "AddressLongitude": "-147.72",
    "city": "Fairbanks",
    "createdBy": 256,
    "createdOn": "2014-04-09 13:13:12.110",
    "isActive": "1",
    "isCatastropheArea": "0",
    "isDeleted": "0",
    "latitude": "",
    "longitude": "",
    "name": "Fairbanks",
    "postalCode": "99707",
    "radius": "100",
    "serviceRegionId": 22,
    "stateId": 2,
    "streetAddress": "",
    "timeZoneId": 4
  },
  {
    "id": 883,
    "addressLatitude": "37.6611568",
    "AddressLongitude": "-97.3134062",
    "city": "Wichita ",
    "createdBy": 124,
    "createdOn": "2014-06-07 18:20:40.863",
    "isActive": "0",
    "isCatastropheArea": "0",
    "isDeleted": "1",
    "latitude": "",
    "longitude": "",
    "name": "Wichita ",
    "postalCode": "71201",
    "radius": "60",
    "serviceRegionId": 13,
    "stateId": 17,
    "streetAddress": "",
    "timeZoneId": 1
  },
  {
    "id": 884,
    "addressLatitude": "41.8990389",
    "AddressLongitude": "-91.5693045",
    "city": "Cedar Rapids",
    "createdBy": 259,
    "createdOn": "2014-07-07 13:58:00.607",
    "isActive": "1",
    "isCatastropheArea": "0",
    "isDeleted": "1",
    "latitude": "",
    "longitude": "",
    "name": "Cedar Rapids",
    "postalCode": "52227",
    "radius": "40",
    "serviceRegionId": 22,
    "stateId": 16,
    "streetAddress": "",
    "timeZoneId": 1
  },
  {
    "id": 885,
    "addressLatitude": "41.6",
    "AddressLongitude": "-93.61",
    "city": "Des Moines",
    "createdBy": 259,
    "createdOn": "2014-07-12 14:26:02.527",
    "isActive": "0",
    "isCatastropheArea": "0",
    "isDeleted": "1",
    "latitude": "",
    "longitude": "",
    "name": "Des Moines",
    "postalCode": "50301",
    "radius": "50",
    "serviceRegionId": 16,
    "stateId": 16,
    "streetAddress": "",
    "timeZoneId": 1
  },
  {
    "id": 886,
    "addressLatitude": "29.752554",
    "AddressLongitude": "-95.3704009",
    "city": "Houston",
    "createdBy": 259,
    "createdOn": "2014-07-18 15:06:10.993",
    "isActive": "1",
    "isCatastropheArea": "0",
    "isDeleted": "0",
    "latitude": "",
    "longitude": "",
    "name": "Houston",
    "postalCode": "77002",
    "radius": "40",
    "serviceRegionId": 17,
    "stateId": 44,
    "streetAddress": "",
    "timeZoneId": 1
  },
  {
    "id": 887,
    "addressLatitude": "42.9174901",
    "AddressLongitude": "-78.8524199",
    "city": "Buffalo",
    "createdBy": 256,
    "createdOn": "2014-08-26 12:06:04.013",
    "isActive": "0",
    "isCatastropheArea": "0",
    "isDeleted": "1",
    "latitude": "",
    "longitude": "",
    "name": "Buffalo",
    "postalCode": "14208",
    "radius": "50",
    "serviceRegionId": 19,
    "stateId": 33,
    "streetAddress": "",
    "timeZoneId": 1
  },
  {
    "id": 888,
    "addressLatitude": "43.1770344",
    "AddressLongitude": "-77.5504779",
    "city": "Rochester",
    "createdBy": 256,
    "createdOn": "2014-08-26 12:06:47.053",
    "isActive": "0",
    "isCatastropheArea": "0",
    "isDeleted": "1",
    "latitude": "",
    "longitude": "",
    "name": "Rochester",
    "postalCode": "14609",
    "radius": "50",
    "serviceRegionId": 19,
    "stateId": 33,
    "streetAddress": "",
    "timeZoneId": 1
  },
  {
    "id": 889,
    "addressLatitude": "43.0513668",
    "AddressLongitude": "-76.1841701",
    "city": "Syracuse",
    "createdBy": 256,
    "createdOn": "2014-08-26 12:07:17.037",
    "isActive": "0",
    "isCatastropheArea": "0",
    "isDeleted": "1",
    "latitude": "",
    "longitude": "",
    "name": "Syracuse",
    "postalCode": "13204",
    "radius": "50",
    "serviceRegionId": 19,
    "stateId": 33,
    "streetAddress": "",
    "timeZoneId": 1
  },
  {
    "id": 890,
    "addressLatitude": "43.1978624",
    "AddressLongitude": "-70.8736698",
    "city": "Dover",
    "createdBy": 256,
    "createdOn": "2014-08-26 12:13:23.860",
    "isActive": "0",
    "isCatastropheArea": "0",
    "isDeleted": "1",
    "latitude": "",
    "longitude": "",
    "name": "Portsmouth",
    "postalCode": "03820",
    "radius": "30",
    "serviceRegionId": 19,
    "stateId": 30,
    "streetAddress": "",
    "timeZoneId": 1
  },
  {
    "id": 891,
    "addressLatitude": "41.3879567",
    "AddressLongitude": "-75.6499025",
    "city": "Scranton",
    "createdBy": 256,
    "createdOn": "2014-08-26 12:24:24.807",
    "isActive": "1",
    "isCatastropheArea": "0",
    "isDeleted": "0",
    "latitude": "",
    "longitude": "",
    "name": "Scranton",
    "postalCode": "18505",
    "radius": "50",
    "serviceRegionId": 19,
    "stateId": 39,
    "streetAddress": "",
    "timeZoneId": 1
  },
  {
    "id": 892,
    "addressLatitude": "41.2674199",
    "AddressLongitude": "-96.0520363",
    "city": "Omaha",
    "createdBy": 3089,
    "createdOn": "2014-10-26 12:37:39.917",
    "isActive": "0",
    "isCatastropheArea": "0",
    "isDeleted": "1",
    "latitude": "",
    "longitude": "",
    "name": "Omaha",
    "postalCode": "68114",
    "radius": "50",
    "serviceRegionId": 13,
    "stateId": 28,
    "streetAddress": "",
    "timeZoneId": 2
  },
  {
    "id": 893,
    "addressLatitude": "43.1978624",
    "AddressLongitude": "-70.8736698",
    "city": "Dover",
    "createdBy": 3089,
    "createdOn": "2014-12-08 12:43:24.853",
    "isActive": "1",
    "isCatastropheArea": "0",
    "isDeleted": "0",
    "latitude": "",
    "longitude": "",
    "name": "New Hampshire",
    "postalCode": "03820",
    "radius": "30",
    "serviceRegionId": 24,
    "stateId": 30,
    "streetAddress": "",
    "timeZoneId": 1
  },
  {
    "id": 894,
    "addressLatitude": "43.6153549",
    "AddressLongitude": "-72.9224329",
    "city": "Rutland",
    "createdBy": 3089,
    "createdOn": "2014-12-08 12:44:34.163",
    "isActive": "1",
    "isCatastropheArea": "0",
    "isDeleted": "0",
    "latitude": "",
    "longitude": "",
    "name": "Vermont",
    "postalCode": "05701",
    "radius": "50",
    "serviceRegionId": 24,
    "stateId": 46,
    "streetAddress": "",
    "timeZoneId": 1
  },
  {
    "id": 895,
    "addressLatitude": "41.7663427",
    "AddressLongitude": "-72.6937171",
    "city": "Hartford",
    "createdBy": 3089,
    "createdOn": "2014-12-08 12:45:28.500",
    "isActive": "1",
    "isCatastropheArea": "0",
    "isDeleted": "0",
    "latitude": "",
    "longitude": "",
    "name": "Connecticut",
    "postalCode": "06160",
    "radius": "60",
    "serviceRegionId": 24,
    "stateId": 7,
    "streetAddress": "",
    "timeZoneId": 1
  },
  {
    "id": 896,
    "addressLatitude": "42.3548561",
    "AddressLongitude": "-71.0661193",
    "city": "Boston",
    "createdBy": 3089,
    "createdOn": "2014-12-08 12:51:16.493",
    "isActive": "1",
    "isCatastropheArea": "0",
    "isDeleted": "0",
    "latitude": "",
    "longitude": "",
    "name": "Massachusetts",
    "postalCode": "02108",
    "radius": "75",
    "serviceRegionId": 24,
    "stateId": 22,
    "streetAddress": "",
    "timeZoneId": 1
  },
  {
    "id": 897,
    "addressLatitude": "41.87894",
    "AddressLongitude": "-71.5664607",
    "city": "Smithfield",
    "createdBy": 3089,
    "createdOn": "2014-12-08 12:52:58.550",
    "isActive": "1",
    "isCatastropheArea": "0",
    "isDeleted": "0",
    "latitude": "",
    "longitude": "",
    "name": "Rhode Island",
    "postalCode": "02828",
    "radius": "20",
    "serviceRegionId": 24,
    "stateId": 40,
    "streetAddress": "",
    "timeZoneId": 1
  },
  {
    "id": 898,
    "addressLatitude": "43.9140162",
    "AddressLongitude": "-69.9669961",
    "city": "Brunswick",
    "createdBy": 3089,
    "createdOn": "2014-12-08 12:54:17.190",
    "isActive": "1",
    "isCatastropheArea": "0",
    "isDeleted": "0",
    "latitude": "",
    "longitude": "",
    "name": "Maine",
    "postalCode": "04011",
    "radius": "20",
    "serviceRegionId": 24,
    "stateId": 20,
    "streetAddress": "",
    "timeZoneId": 1
  },
  {
    "id": 899,
    "addressLatitude": "42.3265152",
    "AddressLongitude": "-122.8755949",
    "city": "Medford",
    "createdBy": 3089,
    "createdOn": "2014-12-15 12:15:34.853",
    "isActive": "0",
    "isCatastropheArea": "1",
    "isDeleted": "0",
    "latitude": "",
    "longitude": "",
    "name": "Portland",
    "postalCode": "97501",
    "radius": "75",
    "serviceRegionId": 20,
    "stateId": 38,
    "streetAddress": "",
    "timeZoneId": 1
  },
  {
    "id": 900,
    "addressLatitude": "36.1592882",
    "AddressLongitude": "-95.9964783",
    "city": "Tulsa",
    "createdBy": 124,
    "createdOn": "2015-05-21 17:34:13.417",
    "isActive": "1",
    "isCatastropheArea": "0",
    "isDeleted": "0",
    "latitude": "",
    "longitude": "",
    "name": "Tulsa",
    "postalCode": "74103",
    "radius": "65",
    "serviceRegionId": 17,
    "stateId": 37,
    "streetAddress": "",
    "timeZoneId": 1
  },
  {
    "id": 901,
    "addressLatitude": "32.3243856",
    "AddressLongitude": "-95.2997959",
    "city": "Tyler",
    "createdBy": 124,
    "createdOn": "2015-05-21 17:36:54.423",
    "isActive": "1",
    "isCatastropheArea": "0",
    "isDeleted": "0",
    "latitude": "",
    "longitude": "",
    "name": "Tyler/Longview",
    "postalCode": "75701",
    "radius": "50",
    "serviceRegionId": 17,
    "stateId": 44,
    "streetAddress": "",
    "timeZoneId": 1
  },
  {
    "id": 903,
    "addressLatitude": "40.5183163",
    "AddressLongitude": "-88.9701082",
    "city": "Normal",
    "createdBy": 7719,
    "createdOn": "2015-07-09 18:47:59.260",
    "isActive": "0",
    "isCatastropheArea": "0",
    "isDeleted": "1",
    "latitude": "",
    "longitude": "",
    "name": "Normal",
    "postalCode": "61761",
    "radius": "65",
    "serviceRegionId": 16,
    "stateId": 14,
    "streetAddress": "",
    "timeZoneId": 1
  },
  {
    "id": 905,
    "addressLatitude": "35.2326781",
    "AddressLongitude": "-80.8460822",
    "city": "Charlotte",
    "createdBy": 7518,
    "createdOn": "2015-08-17 09:24:47.643",
    "isActive": "1",
    "isCatastropheArea": "0",
    "isDeleted": "1",
    "latitude": "",
    "longitude": "",
    "name": "Charlotte",
    "postalCode": "28202",
    "radius": "60",
    "serviceRegionId": 11,
    "stateId": 34,
    "streetAddress": "",
    "timeZoneId": 1
  },
  {
    "id": 906,
    "addressLatitude": "35.7927515",
    "AddressLongitude": "-78.6540576",
    "city": "Raleigh",
    "createdBy": 7518,
    "createdOn": "2015-08-17 09:26:37.437",
    "isActive": "1",
    "isCatastropheArea": "0",
    "isDeleted": "1",
    "latitude": "",
    "longitude": "",
    "name": "Raleigh",
    "postalCode": "27605",
    "radius": "60",
    "serviceRegionId": 11,
    "stateId": 34,
    "streetAddress": "",
    "timeZoneId": 1
  },
  {
    "id": 907,
    "addressLatitude": "36.1155274",
    "AddressLongitude": "-79.7512033",
    "city": "Greensboro",
    "createdBy": 7518,
    "createdOn": "2015-08-17 09:32:56.613",
    "isActive": "1",
    "isCatastropheArea": "0",
    "isDeleted": "1",
    "latitude": "",
    "longitude": "",
    "name": "Greensboro",
    "postalCode": "27405",
    "radius": "10",
    "serviceRegionId": 11,
    "stateId": 34,
    "streetAddress": "",
    "timeZoneId": 1
  },
  {
    "id": 908,
    "addressLatitude": "34.0702777",
    "AddressLongitude": "-80.9111111",
    "city": "Columbia",
    "createdBy": 7518,
    "createdOn": "2015-08-17 09:34:12.413",
    "isActive": "1",
    "isCatastropheArea": "0",
    "isDeleted": "1",
    "latitude": "",
    "longitude": "",
    "name": "Columbia",
    "postalCode": "46725",
    "radius": "60",
    "serviceRegionId": 11,
    "stateId": 41,
    "streetAddress": "",
    "timeZoneId": 1
  },
  {
    "id": 909,
    "addressLatitude": "34.8083898",
    "AddressLongitude": "-82.3343375",
    "city": "Greenville",
    "createdBy": 7518,
    "createdOn": "2015-08-17 09:36:08.417",
    "isActive": "1",
    "isCatastropheArea": "0",
    "isDeleted": "1",
    "latitude": "",
    "longitude": "",
    "name": "Greenville",
    "postalCode": "29607",
    "radius": "60",
    "serviceRegionId": 11,
    "stateId": 41,
    "streetAddress": "",
    "timeZoneId": 1
  },
  {
    "id": 910,
    "addressLatitude": "36.0837485",
    "AddressLongitude": "-80.2464384",
    "city": "Salem",
    "createdBy": 7518,
    "createdOn": "2015-08-17 09:39:27.087",
    "isActive": "1",
    "isCatastropheArea": "0",
    "isDeleted": "1",
    "latitude": "",
    "longitude": "",
    "name": "Winston-Salem",
    "postalCode": "27101",
    "radius": "60",
    "serviceRegionId": 11,
    "stateId": 34,
    "streetAddress": "",
    "timeZoneId": 1
  },
  {
    "id": 911,
    "addressLatitude": "33.7070405",
    "AddressLongitude": "-78.8948741",
    "city": "Myrtle Beach",
    "createdBy": 7518,
    "createdOn": "2015-08-17 09:41:15.897",
    "isActive": "1",
    "isCatastropheArea": "0",
    "isDeleted": "1",
    "latitude": "",
    "longitude": "",
    "name": "Myrtle Beach",
    "postalCode": "29577",
    "radius": "60",
    "serviceRegionId": 11,
    "stateId": 41,
    "streetAddress": "",
    "timeZoneId": 1
  },
  {
    "id": 912,
    "addressLatitude": "33.5178769",
    "AddressLongitude": "-86.8094808",
    "city": "Birmingham",
    "createdBy": 7518,
    "createdOn": "2015-08-17 10:23:42.050",
    "isActive": "1",
    "isCatastropheArea": "0",
    "isDeleted": "0",
    "latitude": "",
    "longitude": "",
    "name": "Birmingham",
    "postalCode": "35203",
    "radius": "60",
    "serviceRegionId": 13,
    "stateId": 1,
    "streetAddress": "",
    "timeZoneId": 1
  },
  {
    "id": 913,
    "addressLatitude": "34.7364493",
    "AddressLongitude": "-86.5501654",
    "city": "Huntsville",
    "createdBy": 7518,
    "createdOn": "2015-08-17 10:25:12.657",
    "isActive": "0",
    "isCatastropheArea": "0",
    "isDeleted": "1",
    "latitude": "",
    "longitude": "",
    "name": "North Alabama",
    "postalCode": "35801",
    "radius": "60",
    "serviceRegionId": 13,
    "stateId": 1,
    "streetAddress": "",
    "timeZoneId": 1
  },
  {
    "id": 914,
    "addressLatitude": "32.3989318",
    "AddressLongitude": "-86.3224638",
    "city": "Montgomery",
    "createdBy": 7518,
    "createdOn": "2015-08-17 10:26:26.913",
    "isActive": "1",
    "isCatastropheArea": "0",
    "isDeleted": "0",
    "latitude": "",
    "longitude": "",
    "name": "Montgomery",
    "postalCode": "36104",
    "radius": "75",
    "serviceRegionId": 13,
    "stateId": 1,
    "streetAddress": "",
    "timeZoneId": 1
  },
  {
    "id": 915,
    "addressLatitude": "38.6270025",
    "AddressLongitude": "-90.1994042",
    "city": "St Louis",
    "createdBy": 7518,
    "createdOn": "2015-08-17 10:58:50.603",
    "isActive": "0",
    "isCatastropheArea": "0",
    "isDeleted": "1",
    "latitude": "",
    "longitude": "",
    "name": "St. Louis",
    "postalCode": "99501",
    "radius": "1",
    "serviceRegionId": 18,
    "stateId": 26,
    "streetAddress": "",
    "timeZoneId": 1
  },
  {
    "id": 916,
    "addressLatitude": "61.2189229",
    "AddressLongitude": "-149.8503728",
    "city": "anchorage",
    "createdBy": 7518,
    "createdOn": "2015-08-17 12:07:10.280",
    "isActive": "0",
    "isCatastropheArea": "0",
    "isDeleted": "1",
    "latitude": "",
    "longitude": "",
    "name": "Kansas City",
    "postalCode": "99501",
    "radius": "1",
    "serviceRegionId": 18,
    "stateId": 2,
    "streetAddress": "",
    "timeZoneId": 1
  },
  {
    "id": 917,
    "addressLatitude": "61.2189229",
    "AddressLongitude": "-149.8503728",
    "city": "anchorage",
    "createdBy": 7518,
    "createdOn": "2015-08-17 12:16:45.223",
    "isActive": "0",
    "isCatastropheArea": "0",
    "isDeleted": "1",
    "latitude": "",
    "longitude": "",
    "name": "Omaha",
    "postalCode": "99501",
    "radius": "1",
    "serviceRegionId": 18,
    "stateId": 2,
    "streetAddress": "",
    "timeZoneId": 1
  },
  {
    "id": 918,
    "addressLatitude": "30.7058829",
    "AddressLongitude": "-88.038754",
    "city": "Mobile",
    "createdBy": 7518,
    "createdOn": "2015-09-03 16:11:12.217",
    "isActive": "1",
    "isCatastropheArea": "0",
    "isDeleted": "0",
    "latitude": "",
    "longitude": "",
    "name": "Mobile",
    "postalCode": "36602",
    "radius": "55",
    "serviceRegionId": 13,
    "stateId": 1,
    "streetAddress": "",
    "timeZoneId": 1
  },
  {
    "id": 919,
    "addressLatitude": "47.6084921",
    "AddressLongitude": "-122.336407",
    "city": "Seattle",
    "createdBy": 7518,
    "createdOn": "2015-11-20 10:35:16.930",
    "isActive": "1",
    "isCatastropheArea": "1",
    "isDeleted": "0",
    "latitude": "",
    "longitude": "",
    "name": "Seattle",
    "postalCode": "98101",
    "radius": "60",
    "serviceRegionId": 20,
    "stateId": 48,
    "streetAddress": "",
    "timeZoneId": 4
  },
  {
    "id": 920,
    "addressLatitude": "47.6600716",
    "AddressLongitude": "-117.4316272",
    "city": "Spokane",
    "createdBy": 7518,
    "createdOn": "2015-11-20 10:39:01.900",
    "isActive": "1",
    "isCatastropheArea": "1",
    "isDeleted": "0",
    "latitude": "",
    "longitude": "",
    "name": "Spokane",
    "postalCode": "99201",
    "radius": "60",
    "serviceRegionId": 20,
    "stateId": 48,
    "streetAddress": "",
    "timeZoneId": 4
  },
  {
    "id": 921,
    "addressLatitude": "47.6084921",
    "AddressLongitude": "-122.336407",
    "city": "Seattle",
    "createdBy": 7518,
    "createdOn": "2015-11-20 14:33:18.850",
    "isActive": "0",
    "isCatastropheArea": "1",
    "isDeleted": "1",
    "latitude": "",
    "longitude": "",
    "name": "Seattle",
    "postalCode": "98101",
    "radius": "60",
    "serviceRegionId": 26,
    "stateId": 48,
    "streetAddress": "",
    "timeZoneId": 4
  },
  {
    "id": 922,
    "addressLatitude": "47.6600716",
    "AddressLongitude": "-117.4316272",
    "city": "Spokane",
    "createdBy": 7518,
    "createdOn": "2015-11-20 14:36:37.953",
    "isActive": "0",
    "isCatastropheArea": "1",
    "isDeleted": "1",
    "latitude": "",
    "longitude": "",
    "name": "Spokane",
    "postalCode": "99201",
    "radius": "60",
    "serviceRegionId": 26,
    "stateId": 48,
    "streetAddress": "",
    "timeZoneId": 1
  },
  {
    "id": 923,
    "addressLatitude": "25.7143625",
    "AddressLongitude": "-80.610489",
    "city": "Miami",
    "createdBy": 7518,
    "createdOn": "2016-02-09 13:10:39.437",
    "isActive": "0",
    "isCatastropheArea": "0",
    "isDeleted": "1",
    "latitude": "",
    "longitude": "",
    "name": "Miami",
    "postalCode": "33194",
    "radius": "1",
    "serviceRegionId": 11,
    "stateId": 10,
    "streetAddress": "",
    "timeZoneId": 1
  },
  {
    "id": 924,
    "addressLatitude": "31.7597373",
    "AddressLongitude": "-106.4788714",
    "city": "EL PASO",
    "createdBy": 7518,
    "createdOn": "2016-02-09 14:01:40.423",
    "isActive": "1",
    "isCatastropheArea": "0",
    "isDeleted": "0",
    "latitude": "",
    "longitude": "",
    "name": "El Paso",
    "postalCode": "79901",
    "radius": "60",
    "serviceRegionId": 17,
    "stateId": 44,
    "streetAddress": "",
    "timeZoneId": 1
  },
  {
    "id": 925,
    "addressLatitude": "32.5099127",
    "AddressLongitude": "-93.7485874",
    "city": "Shreveport",
    "createdBy": 7518,
    "createdOn": "2016-02-15 10:39:27.017",
    "isActive": "1",
    "isCatastropheArea": "0",
    "isDeleted": "0",
    "latitude": "",
    "longitude": "",
    "name": "Shreveport",
    "postalCode": "71101",
    "radius": "60",
    "serviceRegionId": 13,
    "stateId": 19,
    "streetAddress": "",
    "timeZoneId": 1
  },
  {
    "id": 926,
    "addressLatitude": "32.5312001",
    "AddressLongitude": "-92.0959429",
    "city": "Monroe",
    "createdBy": 7518,
    "createdOn": "2016-02-15 10:40:05.673",
    "isActive": "1",
    "isCatastropheArea": "0",
    "isDeleted": "0",
    "latitude": "",
    "longitude": "",
    "name": "Monroe",
    "postalCode": "71201",
    "radius": "60",
    "serviceRegionId": 13,
    "stateId": 19,
    "streetAddress": "",
    "timeZoneId": 1
  },
  {
    "id": 927,
    "addressLatitude": "30.8327022",
    "AddressLongitude": "-83.2784851",
    "city": "Valdosta",
    "createdBy": 124,
    "createdOn": "2016-09-01 17:27:07.570",
    "isActive": "1",
    "isCatastropheArea": "0",
    "isDeleted": "0",
    "latitude": "",
    "longitude": "",
    "name": "Valdosta",
    "postalCode": "31601",
    "radius": "50",
    "serviceRegionId": 11,
    "stateId": 11,
    "streetAddress": "",
    "timeZoneId": 1
  },
  {
    "id": 928,
    "addressLatitude": "30.4305062",
    "AddressLongitude": "-84.2542195",
    "city": "Tallahassee",
    "createdBy": 124,
    "createdOn": "2016-09-01 17:28:05.573",
    "isActive": "0",
    "isCatastropheArea": "0",
    "isDeleted": "1",
    "latitude": "",
    "longitude": "",
    "name": "Tallahassee",
    "postalCode": "32301",
    "radius": "1",
    "serviceRegionId": 11,
    "stateId": 11,
    "streetAddress": "",
    "timeZoneId": 1
  },
  {
    "id": 929,
    "addressLatitude": "33.7070405",
    "AddressLongitude": "-78.8948741",
    "city": "Myrtle Beach",
    "createdBy": 124,
    "createdOn": "2016-10-11 16:47:10.203",
    "isActive": "1",
    "isCatastropheArea": "0",
    "isDeleted": "0",
    "latitude": "",
    "longitude": "",
    "name": "Myrtle Beach",
    "postalCode": "29577",
    "radius": "35",
    "serviceRegionId": 12,
    "stateId": 41,
    "streetAddress": "",
    "timeZoneId": 1
  },
  {
    "id": 930,
    "addressLatitude": "32.7791432",
    "AddressLongitude": "-79.9248669",
    "city": "Charleston",
    "createdBy": 124,
    "createdOn": "2016-10-11 16:58:24.147",
    "isActive": "1",
    "isCatastropheArea": "0",
    "isDeleted": "0",
    "latitude": "",
    "longitude": "",
    "name": "Charleston",
    "postalCode": "29401",
    "radius": "35",
    "serviceRegionId": 12,
    "stateId": 41,
    "streetAddress": "",
    "timeZoneId": 1
  },
  {
    "id": 931,
    "addressLatitude": "38.7979156",
    "AddressLongitude": "-120.8890763",
    "city": "Sacramento",
    "createdBy": 259,
    "createdOn": "2017-01-25 10:27:13.060",
    "isActive": "0",
    "isCatastropheArea": "0",
    "isDeleted": "1",
    "latitude": "",
    "longitude": "",
    "name": "Sacramento",
    "postalCode": "99635",
    "radius": "60",
    "serviceRegionId": 26,
    "stateId": 5,
    "streetAddress": "",
    "timeZoneId": 4
  },
  {
    "id": 932,
    "addressLatitude": "61.796895",
    "AddressLongitude": "-148.2680888",
    "city": " Anchorage",
    "createdBy": 259,
    "createdOn": "2017-01-26 10:34:50.417",
    "isActive": "1",
    "isCatastropheArea": "0",
    "isDeleted": "0",
    "latitude": "",
    "longitude": "",
    "name": "Off Rotation",
    "postalCode": "99635",
    "radius": "60",
    "serviceRegionId": 26,
    "stateId": 2,
    "streetAddress": "",
    "timeZoneId": 4
  },
  {
    "id": 933,
    "addressLatitude": "41.9003099",
    "AddressLongitude": "-87.6333871",
    "city": "Chicago",
    "createdBy": 259,
    "createdOn": "2017-03-06 12:43:13.567",
    "isActive": "1",
    "isCatastropheArea": "0",
    "isDeleted": "0",
    "latitude": "",
    "longitude": "",
    "name": "Chicago",
    "postalCode": "60610",
    "radius": "20",
    "serviceRegionId": 27,
    "stateId": 14,
    "streetAddress": "",
    "timeZoneId": 1
  },
  {
    "id": 934,
    "addressLatitude": "61.2189229",
    "AddressLongitude": "-149.8503728",
    "city": "anchorage",
    "createdBy": 259,
    "createdOn": "2017-03-06 12:46:00.830",
    "isActive": "0",
    "isCatastropheArea": "0",
    "isDeleted": "1",
    "latitude": "",
    "longitude": "",
    "name": "St. Louis",
    "postalCode": "99501",
    "radius": "1",
    "serviceRegionId": 27,
    "stateId": 2,
    "streetAddress": "",
    "timeZoneId": 1
  },
  {
    "id": 935,
    "addressLatitude": "40.8571957",
    "AddressLongitude": "-89.6816208",
    "city": "Preoria",
    "createdBy": 259,
    "createdOn": "2017-03-06 18:20:10.903",
    "isActive": "1",
    "isCatastropheArea": "0",
    "isDeleted": "0",
    "latitude": "",
    "longitude": "",
    "name": "Peoria",
    "postalCode": "61525",
    "radius": "60",
    "serviceRegionId": 27,
    "stateId": 14,
    "streetAddress": "",
    "timeZoneId": 1
  },
  {
    "id": 936,
    "addressLatitude": "41.6611277",
    "AddressLongitude": "-91.5301683",
    "city": "Iowa City",
    "createdBy": 259,
    "createdOn": "2017-03-06 18:32:55.490",
    "isActive": "1",
    "isCatastropheArea": "0",
    "isDeleted": "1",
    "latitude": "",
    "longitude": "",
    "name": "Iowa City",
    "postalCode": "52240",
    "radius": "30",
    "serviceRegionId": 16,
    "stateId": 16,
    "streetAddress": "",
    "timeZoneId": 1
  },
  {
    "id": 937,
    "addressLatitude": "41.585543",
    "AddressLongitude": "-90.7743819",
    "city": "Walcott",
    "createdBy": 259,
    "createdOn": "2017-03-06 18:33:40.427",
    "isActive": "0",
    "isCatastropheArea": "0",
    "isDeleted": "1",
    "latitude": "",
    "longitude": "",
    "name": "Davenport",
    "postalCode": "52773",
    "radius": "20",
    "serviceRegionId": 16,
    "stateId": 16,
    "streetAddress": "",
    "timeZoneId": 1
  },
  {
    "id": 938,
    "addressLatitude": "40.8298688",
    "AddressLongitude": "-96.7012424",
    "city": "Lincoln",
    "createdBy": 259,
    "createdOn": "2017-03-06 18:37:04.877",
    "isActive": "1",
    "isCatastropheArea": "0",
    "isDeleted": "1",
    "latitude": "",
    "longitude": "",
    "name": "Lincoln",
    "postalCode": "68508",
    "radius": "60",
    "serviceRegionId": 18,
    "stateId": 28,
    "streetAddress": "",
    "timeZoneId": 1
  },
  {
    "id": 939,
    "addressLatitude": "41.1399814",
    "AddressLongitude": "-104.8202462",
    "city": "Cheyenne",
    "createdBy": 259,
    "createdOn": "2017-03-06 18:38:04.803",
    "isActive": "1",
    "isCatastropheArea": "0",
    "isDeleted": "0",
    "latitude": "",
    "longitude": "",
    "name": "Cheyenne",
    "postalCode": "82001",
    "radius": "60",
    "serviceRegionId": 18,
    "stateId": 51,
    "streetAddress": "",
    "timeZoneId": 1
  },
  {
    "id": 940,
    "addressLatitude": "36.3412594",
    "AddressLongitude": "-82.3234843",
    "city": "Johnson City",
    "createdBy": 259,
    "createdOn": "2017-03-28 09:07:10.637",
    "isActive": "1",
    "isCatastropheArea": "0",
    "isDeleted": "0",
    "latitude": "",
    "longitude": "",
    "name": "Johnson City",
    "postalCode": "37601",
    "radius": "40",
    "serviceRegionId": 28,
    "stateId": 43,
    "streetAddress": "",
    "timeZoneId": 1
  },
  {
    "id": 941,
    "addressLatitude": "36.3412594",
    "AddressLongitude": "-82.3234843",
    "city": "Johnson City",
    "createdBy": 259,
    "createdOn": "2017-03-28 09:07:10.557",
    "isActive": "0",
    "isCatastropheArea": "0",
    "isDeleted": "1",
    "latitude": "",
    "longitude": "",
    "name": "Johnson City",
    "postalCode": "37601",
    "radius": "40",
    "serviceRegionId": 13,
    "stateId": 43,
    "streetAddress": "",
    "timeZoneId": 1
  },
  {
    "id": 942,
    "addressLatitude": "43.1770344",
    "AddressLongitude": "-77.5504779",
    "city": "Rochester",
    "createdBy": 124,
    "createdOn": "2017-06-20 10:43:22.527",
    "isActive": "1",
    "isCatastropheArea": "0",
    "isDeleted": "0",
    "latitude": "",
    "longitude": "",
    "name": "Rochester",
    "postalCode": "14609",
    "radius": "50",
    "serviceRegionId": 24,
    "stateId": 33,
    "streetAddress": "",
    "timeZoneId": 1
  },
  {
    "id": 943,
    "addressLatitude": "43.0513668",
    "AddressLongitude": "-76.1841701",
    "city": "Syracuse",
    "createdBy": 124,
    "createdOn": "2017-06-20 10:43:59.667",
    "isActive": "1",
    "isCatastropheArea": "0",
    "isDeleted": "0",
    "latitude": "",
    "longitude": "",
    "name": "Syracuse",
    "postalCode": "13204",
    "radius": "50",
    "serviceRegionId": 24,
    "stateId": 33,
    "streetAddress": "",
    "timeZoneId": 1
  },
  {
    "id": 944,
    "addressLatitude": "40.7421943",
    "AddressLongitude": "-73.7889689",
    "city": "New York",
    "createdBy": 124,
    "createdOn": "2017-06-20 10:45:03.967",
    "isActive": "1",
    "isCatastropheArea": "0",
    "isDeleted": "0",
    "latitude": "",
    "longitude": "",
    "name": "Long Island",
    "postalCode": "11365",
    "radius": "40",
    "serviceRegionId": 24,
    "stateId": 33,
    "streetAddress": "",
    "timeZoneId": 1
  },
  {
    "id": 945,
    "addressLatitude": "42.6757698",
    "AddressLongitude": "-73.7860276",
    "city": "Albany",
    "createdBy": 124,
    "createdOn": "2017-06-20 10:45:30.263",
    "isActive": "1",
    "isCatastropheArea": "0",
    "isDeleted": "0",
    "latitude": "",
    "longitude": "",
    "name": "Albany",
    "postalCode": "12206",
    "radius": "60",
    "serviceRegionId": 24,
    "stateId": 33,
    "streetAddress": "",
    "timeZoneId": 1
  },
  {
    "id": 946,
    "addressLatitude": "42.9174901",
    "AddressLongitude": "-78.8524199",
    "city": "Buffalo",
    "createdBy": 124,
    "createdOn": "2017-06-20 10:46:06.450",
    "isActive": "1",
    "isCatastropheArea": "0",
    "isDeleted": "0",
    "latitude": "",
    "longitude": "",
    "name": "Buffalo",
    "postalCode": "14208",
    "radius": "60",
    "serviceRegionId": 24,
    "stateId": 33,
    "streetAddress": "",
    "timeZoneId": 1
  },
  {
    "id": 947,
    "addressLatitude": "33.4483771",
    "AddressLongitude": "-112.0740373",
    "city": "Phoenix",
    "createdBy": 259,
    "createdOn": "2017-08-10 11:04:42.853",
    "isActive": "0",
    "isCatastropheArea": "0",
    "isDeleted": "0",
    "latitude": "",
    "longitude": "",
    "name": "PHOENIX",
    "postalCode": "99635",
    "radius": "30",
    "serviceRegionId": 26,
    "stateId": 3,
    "streetAddress": "",
    "timeZoneId": 3
  },
  {
    "id": 948,
    "addressLatitude": "26.132433",
    "AddressLongitude": "-81.7951054",
    "city": "Naples",
    "createdBy": 259,
    "createdOn": "2017-09-11 18:39:08.300",
    "isActive": "0",
    "isCatastropheArea": "0",
    "isDeleted": "1",
    "latitude": "",
    "longitude": "",
    "name": "Naples",
    "postalCode": "34102",
    "radius": "1",
    "serviceRegionId": 11,
    "stateId": 10,
    "streetAddress": "",
    "timeZoneId": 1
  },
  {
    "id": 949,
    "addressLatitude": "39.829875",
    "AddressLongitude": "-86.1395598",
    "city": "Indianapolis",
    "createdBy": 124,
    "createdOn": "2018-02-26 10:25:05.193",
    "isActive": "1",
    "isCatastropheArea": "0",
    "isDeleted": "0",
    "latitude": "",
    "longitude": "",
    "name": "Indianapolis",
    "postalCode": "46205",
    "radius": "60",
    "serviceRegionId": 30,
    "stateId": 15,
    "streetAddress": "",
    "timeZoneId": 1
  },
  {
    "id": 950,
    "addressLatitude": "41.6488648",
    "AddressLongitude": "-85.9065966",
    "city": "Gary",
    "createdBy": 124,
    "createdOn": "2018-02-26 10:29:12.940",
    "isActive": "1",
    "isCatastropheArea": "0",
    "isDeleted": "0",
    "latitude": "",
    "longitude": "",
    "name": "Northern Indiana",
    "postalCode": "46530",
    "radius": "30",
    "serviceRegionId": 30,
    "stateId": 15,
    "streetAddress": "",
    "timeZoneId": 1
  },
  {
    "id": 951,
    "addressLatitude": "42.9616689",
    "AddressLongitude": "-85.6588999",
    "city": "Grand Rapids",
    "createdBy": 124,
    "createdOn": "2018-02-26 10:33:10.163",
    "isActive": "1",
    "isCatastropheArea": "0",
    "isDeleted": "0",
    "latitude": "",
    "longitude": "",
    "name": "Grand Rapids",
    "postalCode": "49503",
    "radius": "50",
    "serviceRegionId": 30,
    "stateId": 23,
    "streetAddress": "",
    "timeZoneId": 1
  },
  {
    "id": 952,
    "addressLatitude": "42.335885",
    "AddressLongitude": "-83.248665",
    "city": "Detroit",
    "createdBy": 124,
    "createdOn": "2018-02-26 10:39:32.663",
    "isActive": "1",
    "isCatastropheArea": "0",
    "isDeleted": "0",
    "latitude": "",
    "longitude": "",
    "name": "Detroit",
    "postalCode": "48104",
    "radius": "45",
    "serviceRegionId": 30,
    "stateId": 23,
    "streetAddress": "",
    "timeZoneId": 1
  },
  {
    "id": 953,
    "addressLatitude": "38.3517112",
    "AddressLongitude": "-81.6336474",
    "city": "Charleston",
    "createdBy": 124,
    "createdOn": "2018-02-26 11:15:16.347",
    "isActive": "1",
    "isCatastropheArea": "0",
    "isDeleted": "0",
    "latitude": "",
    "longitude": "",
    "name": "Charleston",
    "postalCode": "25301",
    "radius": "30",
    "serviceRegionId": 15,
    "stateId": 49,
    "streetAddress": "",
    "timeZoneId": 1
  },
  {
    "id": 954,
    "addressLatitude": null,
    "AddressLongitude": null,
    "city": "Jackson",
    "createdBy": 10675,
    "createdOn": "2018-03-13 15:12:06.743",
    "isActive": "1",
    "isCatastropheArea": "0",
    "isDeleted": "0",
    "latitude": "",
    "longitude": "",
    "name": "Jackson",
    "postalCode": "38301",
    "radius": "50",
    "serviceRegionId": 28,
    "stateId": 43,
    "streetAddress": "",
    "timeZoneId": 1
  },
  {
    "id": 955,
    "addressLatitude": "33.9000366",
    "AddressLongitude": "-98.478759",
    "city": "Wichita Falls",
    "createdBy": 10675,
    "createdOn": "2018-03-15 16:56:42.030",
    "isActive": "0",
    "isCatastropheArea": "0",
    "isDeleted": "1",
    "latitude": "",
    "longitude": "",
    "name": "Wichita Falls",
    "postalCode": "76301",
    "radius": "60",
    "serviceRegionId": 18,
    "stateId": 44,
    "streetAddress": "",
    "timeZoneId": 1
  },
  {
    "id": 956,
    "addressLatitude": "40.7967667",
    "AddressLongitude": "-74.4815438",
    "city": "Morristown",
    "createdBy": 10675,
    "createdOn": "2018-03-16 19:05:09.887",
    "isActive": "1",
    "isCatastropheArea": "0",
    "isDeleted": "0",
    "latitude": "",
    "longitude": "",
    "name": "Newark",
    "postalCode": "07960",
    "radius": "19",
    "serviceRegionId": 19,
    "stateId": 31,
    "streetAddress": "",
    "timeZoneId": 1
  },
  {
    "id": 957,
    "addressLatitude": "33.9000366",
    "AddressLongitude": "-98.478759",
    "city": "Wichita Falls",
    "createdBy": 124,
    "createdOn": "2018-03-23 17:51:49.353",
    "isActive": "1",
    "isCatastropheArea": "0",
    "isDeleted": "0",
    "latitude": "",
    "longitude": "",
    "name": "Wichita Falls",
    "postalCode": "76301",
    "radius": "60",
    "serviceRegionId": 17,
    "stateId": 44,
    "streetAddress": "",
    "timeZoneId": 1
  },
  {
    "id": 958,
    "addressLatitude": "48.9384611",
    "AddressLongitude": "-111.158664",
    "city": "Whitlash",
    "createdBy": 124,
    "createdOn": "2018-03-23 17:54:20.673",
    "isActive": "1",
    "isCatastropheArea": "0",
    "isDeleted": "0",
    "latitude": "",
    "longitude": "",
    "name": "Do Not Use",
    "postalCode": "59545",
    "radius": "1",
    "serviceRegionId": 18,
    "stateId": 27,
    "streetAddress": "",
    "timeZoneId": 1
  },
  {
    "id": 959,
    "addressLatitude": "34.6154817",
    "AddressLongitude": "-86.8797372",
    "city": "Huntsville",
    "createdBy": 12359,
    "createdOn": "2018-04-04 12:31:18.893",
    "isActive": "1",
    "isCatastropheArea": "0",
    "isDeleted": "0",
    "latitude": "",
    "longitude": "",
    "name": "Huntsville",
    "postalCode": "35649",
    "radius": "30",
    "serviceRegionId": 13,
    "stateId": 1,
    "streetAddress": "",
    "timeZoneId": 1
  },
  {
    "id": 960,
    "addressLatitude": "37.27",
    "AddressLongitude": "-79.94",
    "city": "Roanoke",
    "createdBy": 12359,
    "createdOn": "2018-04-04 17:42:59.000",
    "isActive": "1",
    "isCatastropheArea": "0",
    "isDeleted": "0",
    "latitude": "",
    "longitude": "",
    "name": "Roanoke",
    "postalCode": "24001",
    "radius": "60",
    "serviceRegionId": 14,
    "stateId": 47,
    "streetAddress": "",
    "timeZoneId": 1
  },
  {
    "id": 961,
    "addressLatitude": "43.4926607",
    "AddressLongitude": "-112.0407584",
    "city": "Idaho Falls",
    "createdBy": 12359,
    "createdOn": "2018-04-11 10:49:33.093",
    "isActive": "0",
    "isCatastropheArea": "0",
    "isDeleted": "1",
    "latitude": "",
    "longitude": "",
    "name": "Idaho Falls",
    "postalCode": "83401",
    "radius": "30",
    "serviceRegionId": 16,
    "stateId": 13,
    "streetAddress": "",
    "timeZoneId": 1
  },
  {
    "id": 962,
    "addressLatitude": "33.3078463",
    "AddressLongitude": "-82.2365981",
    "city": "Augusta",
    "createdBy": 12359,
    "createdOn": "2018-05-22 13:44:45.110",
    "isActive": "1",
    "isCatastropheArea": "0",
    "isDeleted": "0",
    "latitude": "",
    "longitude": "",
    "name": "Augusta",
    "postalCode": "30805",
    "radius": "35",
    "serviceRegionId": 11,
    "stateId": 11,
    "streetAddress": "",
    "timeZoneId": 1
  },
  {
    "id": 963,
    "addressLatitude": "33.5087283",
    "AddressLongitude": "-101.8093583",
    "city": "Lubbock",
    "createdBy": 31661,
    "createdOn": "2018-05-24 10:04:41.313",
    "isActive": "1",
    "isCatastropheArea": "0",
    "isDeleted": "0",
    "latitude": "",
    "longitude": "",
    "name": "Lubbock",
    "postalCode": "79404",
    "radius": "40",
    "serviceRegionId": 17,
    "stateId": 44,
    "streetAddress": "",
    "timeZoneId": 1
  },
  {
    "id": 964,
    "addressLatitude": "36.9685219",
    "AddressLongitude": "-86.4808043",
    "city": "Bowling Green",
    "createdBy": 12359,
    "createdOn": "2018-06-01 15:49:27.890",
    "isActive": "1",
    "isCatastropheArea": "0",
    "isDeleted": "0",
    "latitude": "",
    "longitude": "",
    "name": "Bowling Green",
    "postalCode": "42101",
    "radius": "50",
    "serviceRegionId": 28,
    "stateId": 18,
    "streetAddress": "",
    "timeZoneId": 1
  },
  {
    "id": 965,
    "addressLatitude": "38.1005147",
    "AddressLongitude": "-87.5198011",
    "city": "Evansville ",
    "createdBy": 12359,
    "createdOn": "2018-06-05 08:45:26.520",
    "isActive": "1",
    "isCatastropheArea": "0",
    "isDeleted": "0",
    "latitude": "",
    "longitude": "",
    "name": "Evansville",
    "postalCode": "47725",
    "radius": "30",
    "serviceRegionId": 30,
    "stateId": 15,
    "streetAddress": "",
    "timeZoneId": 1
  },
  {
    "id": 966,
    "addressLatitude": "32.5789583",
    "AddressLongitude": "-84.5526164",
    "city": "Genova",
    "createdBy": 12359,
    "createdOn": "2018-06-27 09:09:53.567",
    "isActive": "1",
    "isCatastropheArea": "0",
    "isDeleted": "0",
    "latitude": "",
    "longitude": "",
    "name": "Columbus",
    "postalCode": "31810",
    "radius": "30",
    "serviceRegionId": 11,
    "stateId": 11,
    "streetAddress": "",
    "timeZoneId": 1
  },
  {
    "id": 967,
    "addressLatitude": "39.2963369",
    "AddressLongitude": "-76.6210539",
    "city": "Baltimore",
    "createdBy": 31661,
    "createdOn": "2018-07-11 09:26:41.017",
    "isActive": "1",
    "isCatastropheArea": "0",
    "isDeleted": "0",
    "latitude": "",
    "longitude": "",
    "name": "Mid-Atlantic",
    "postalCode": "21201",
    "radius": "60",
    "serviceRegionId": 14,
    "stateId": 21,
    "streetAddress": "",
    "timeZoneId": 1
  },
  {
    "id": 968,
    "addressLatitude": "61.2189229",
    "AddressLongitude": "-149.8503728",
    "city": "anchorage",
    "createdBy": 12359,
    "createdOn": "2018-07-16 11:59:50.940",
    "isActive": "0",
    "isCatastropheArea": "0",
    "isDeleted": "1",
    "latitude": "",
    "longitude": "",
    "name": "Springfield",
    "postalCode": "99501",
    "radius": "1",
    "serviceRegionId": 27,
    "stateId": 2,
    "streetAddress": "",
    "timeZoneId": 1
  },
  {
    "id": 969,
    "addressLatitude": "41.4701989",
    "AddressLongitude": "-87.3214908",
    "city": "Merrillville",
    "createdBy": 12359,
    "createdOn": "2018-07-16 12:02:55.570",
    "isActive": "1",
    "isCatastropheArea": "0",
    "isDeleted": "0",
    "latitude": "",
    "longitude": "",
    "name": "Gary",
    "postalCode": "46410",
    "radius": "13",
    "serviceRegionId": 30,
    "stateId": 15,
    "streetAddress": "",
    "timeZoneId": 1
  },
  {
    "id": 970,
    "addressLatitude": "43.0608289",
    "AddressLongitude": "-89.6556779",
    "city": "Pine Bluff",
    "createdBy": 12359,
    "createdOn": "2018-07-16 12:18:17.880",
    "isActive": "1",
    "isCatastropheArea": "0",
    "isDeleted": "0",
    "latitude": "",
    "longitude": "",
    "name": "Madison",
    "postalCode": "53528",
    "radius": "20",
    "serviceRegionId": 16,
    "stateId": 50,
    "streetAddress": "",
    "timeZoneId": 1
  },
  {
    "id": 971,
    "addressLatitude": "39.0992398",
    "AddressLongitude": "-84.4776372",
    "city": "Cincinnati",
    "createdBy": 31661,
    "createdOn": "2018-08-09 16:32:27.827",
    "isActive": "1",
    "isCatastropheArea": "0",
    "isDeleted": "0",
    "latitude": "",
    "longitude": "",
    "name": "Cincinnati",
    "postalCode": "41073",
    "radius": "60",
    "serviceRegionId": 15,
    "stateId": 36,
    "streetAddress": "",
    "timeZoneId": 1
  },
  {
    "id": 972,
    "addressLatitude": "44.811349",
    "AddressLongitude": "-91.4984941",
    "city": "Eau Claire",
    "createdBy": 12359,
    "createdOn": "2018-08-27 13:39:28.767",
    "isActive": "1",
    "isCatastropheArea": "0",
    "isDeleted": "0",
    "latitude": "",
    "longitude": "",
    "name": "Eau Claire",
    "postalCode": "55935",
    "radius": "20",
    "serviceRegionId": 16,
    "stateId": 24,
    "streetAddress": "",
    "timeZoneId": 1
  },
  {
    "id": 973,
    "addressLatitude": "34.1980902",
    "AddressLongitude": "-79.8520818",
    "city": "Florence",
    "createdBy": 12359,
    "createdOn": "2018-09-11 12:56:50.717",
    "isActive": "1",
    "isCatastropheArea": "0",
    "isDeleted": "0",
    "latitude": "",
    "longitude": "",
    "name": "Florence",
    "postalCode": "29501",
    "radius": "30",
    "serviceRegionId": 12,
    "stateId": 41,
    "streetAddress": "",
    "timeZoneId": 1
  },
  {
    "id": 974,
    "addressLatitude": "34.6923643",
    "AddressLongitude": "-77.6307018",
    "city": "Wilmington",
    "createdBy": 12359,
    "createdOn": "2018-09-11 12:59:47.007",
    "isActive": "1",
    "isCatastropheArea": "0",
    "isDeleted": "0",
    "latitude": "",
    "longitude": "",
    "name": "Wilmington",
    "postalCode": "28454",
    "radius": "65",
    "serviceRegionId": 12,
    "stateId": 34,
    "streetAddress": "",
    "timeZoneId": 1
  },
  {
    "id": 975,
    "addressLatitude": "35.1953434",
    "AddressLongitude": "-79.4695495",
    "city": "Fayetteville",
    "createdBy": 12359,
    "createdOn": "2018-09-11 13:05:18.827",
    "isActive": "1",
    "isCatastropheArea": "0",
    "isDeleted": "0",
    "latitude": "",
    "longitude": "",
    "name": "Fayetteville",
    "postalCode": "28374",
    "radius": "45",
    "serviceRegionId": 12,
    "stateId": 34,
    "streetAddress": "",
    "timeZoneId": 1
  },
  {
    "id": 976,
    "addressLatitude": "30.2097667",
    "AddressLongitude": "-85.8556808",
    "city": "Panama City Beach",
    "createdBy": 12359,
    "createdOn": "2018-10-08 13:37:28.867",
    "isActive": "0",
    "isCatastropheArea": "0",
    "isDeleted": "1",
    "latitude": "",
    "longitude": "",
    "name": "Panama City Beach",
    "postalCode": "32413",
    "radius": "55",
    "serviceRegionId": 11,
    "stateId": 10,
    "streetAddress": "",
    "timeZoneId": 1
  },
  {
    "id": 977,
    "addressLatitude": "45.4888208",
    "AddressLongitude": "-87.9963408",
    "city": "Marinette",
    "createdBy": 12359,
    "createdOn": "2018-10-23 15:52:08.713",
    "isActive": "1",
    "isCatastropheArea": "0",
    "isDeleted": "0",
    "latitude": "",
    "longitude": "",
    "name": "Marinette ",
    "postalCode": "54102",
    "radius": "35",
    "serviceRegionId": 16,
    "stateId": 23,
    "streetAddress": "",
    "timeZoneId": 1
  },
  {
    "id": 978,
    "addressLatitude": "42.2473619",
    "AddressLongitude": "-89.0800227",
    "city": "Rockford",
    "createdBy": 12359,
    "createdOn": "2018-10-23 15:59:55.080",
    "isActive": "1",
    "isCatastropheArea": "0",
    "isDeleted": "0",
    "latitude": "",
    "longitude": "",
    "name": "Rockford",
    "postalCode": "61104",
    "radius": "15",
    "serviceRegionId": 27,
    "stateId": 14,
    "streetAddress": "",
    "timeZoneId": 1
  },
  {
    "id": 979,
    "addressLatitude": "25.9964301",
    "AddressLongitude": "-97.5788975",
    "city": "Brownsville",
    "createdBy": 12359,
    "createdOn": "2018-12-03 15:33:20.960",
    "isActive": "1",
    "isCatastropheArea": "0",
    "isDeleted": "0",
    "latitude": "",
    "longitude": "",
    "name": "Rio Grande ",
    "postalCode": "78520",
    "radius": "80",
    "serviceRegionId": 17,
    "stateId": 44,
    "streetAddress": "",
    "timeZoneId": 1
  },
  {
    "id": 980,
    "addressLatitude": "36.082156",
    "AddressLongitude": "-94.1718542",
    "city": "Fayetteville",
    "createdBy": 31661,
    "createdOn": "2018-12-05 15:52:45.483",
    "isActive": "1",
    "isCatastropheArea": "0",
    "isDeleted": "0",
    "latitude": "",
    "longitude": "",
    "name": "Fayetteville ",
    "postalCode": "72740",
    "radius": "37",
    "serviceRegionId": 13,
    "stateId": 4,
    "streetAddress": "",
    "timeZoneId": 1
  },
  {
    "id": 981,
    "addressLatitude": "34.2137735",
    "AddressLongitude": "-88.7686382",
    "city": "Tupelo",
    "createdBy": 12359,
    "createdOn": "2018-12-12 08:46:06.903",
    "isActive": "1",
    "isCatastropheArea": "0",
    "isDeleted": "0",
    "latitude": "",
    "longitude": "",
    "name": "Tupelo",
    "postalCode": "38801",
    "radius": "35",
    "serviceRegionId": 28,
    "stateId": 25,
    "streetAddress": "",
    "timeZoneId": 1
  },
  {
    "id": 982,
    "addressLatitude": "47.6084921",
    "AddressLongitude": "-122.336407",
    "city": "Seattle",
    "createdBy": 12359,
    "createdOn": "2018-12-28 08:33:43.047",
    "isActive": "1",
    "isCatastropheArea": "0",
    "isDeleted": "0",
    "latitude": "",
    "longitude": "",
    "name": "Seattle",
    "postalCode": "98101",
    "radius": "60",
    "serviceRegionId": 26,
    "stateId": 48,
    "streetAddress": "",
    "timeZoneId": 1
  },
  {
    "id": 983,
    "addressLatitude": "38.58",
    "AddressLongitude": "-121.49",
    "city": "Sacramento ",
    "createdBy": 12359,
    "createdOn": "2019-01-09 08:51:17.257",
    "isActive": "1",
    "isCatastropheArea": "0",
    "isDeleted": "0",
    "latitude": "",
    "longitude": "",
    "name": "Sacramento ",
    "postalCode": "94203",
    "radius": "80",
    "serviceRegionId": 18,
    "stateId": 5,
    "streetAddress": "",
    "timeZoneId": 1
  },
  {
    "id": 984,
    "addressLatitude": "30.754696",
    "AddressLongitude": "-86.5645442",
    "city": "Pensacola",
    "createdBy": 12359,
    "createdOn": "2019-02-20 13:33:14.087",
    "isActive": "0",
    "isCatastropheArea": "0",
    "isDeleted": "1",
    "latitude": "",
    "longitude": "",
    "name": "Pensacola",
    "postalCode": "32536",
    "radius": "80",
    "serviceRegionId": 13,
    "stateId": 10,
    "streetAddress": "",
    "timeZoneId": 1
  },
  {
    "id": 985,
    "addressLatitude": "40.506257",
    "AddressLongitude": "-80.8654534",
    "city": "Stubenville",
    "createdBy": 12359,
    "createdOn": "2019-03-11 13:23:38.887",
    "isActive": "1",
    "isCatastropheArea": "0",
    "isDeleted": "0",
    "latitude": "",
    "longitude": "",
    "name": "Stubenville",
    "postalCode": "43908",
    "radius": "10",
    "serviceRegionId": 15,
    "stateId": 36,
    "streetAddress": "",
    "timeZoneId": 1
  },
  {
    "id": 986,
    "addressLatitude": "39.010496",
    "AddressLongitude": "-88.073373",
    "city": "Southern Illinois ",
    "createdBy": 12359,
    "createdOn": "2019-03-11 13:25:31.197",
    "isActive": "1",
    "isCatastropheArea": "0",
    "isDeleted": "0",
    "latitude": "",
    "longitude": "",
    "name": "Southern Illinois ",
    "postalCode": "62448",
    "radius": "40",
    "serviceRegionId": 27,
    "stateId": 14,
    "streetAddress": "",
    "timeZoneId": 1
  },
  {
    "id": 987,
    "addressLatitude": "61.22",
    "AddressLongitude": "-149.9",
    "city": "anchorage",
    "createdBy": 12359,
    "createdOn": "2019-03-11 14:33:45.897",
    "isActive": "0",
    "isCatastropheArea": "0",
    "isDeleted": "1",
    "latitude": "",
    "longitude": "",
    "name": "Jefferson City",
    "postalCode": "99514",
    "radius": "1",
    "serviceRegionId": 27,
    "stateId": 2,
    "streetAddress": "",
    "timeZoneId": 1
  },
  {
    "id": 988,
    "addressLatitude": "30.3276337",
    "AddressLongitude": "-81.6555607",
    "city": "Jacksonville",
    "createdBy": 12359,
    "createdOn": "2019-03-12 09:46:07.677",
    "isActive": "1",
    "isCatastropheArea": "0",
    "isDeleted": "0",
    "latitude": "",
    "longitude": "",
    "name": "Jacksonville",
    "postalCode": "32202",
    "radius": "60",
    "serviceRegionId": 34,
    "stateId": 10,
    "streetAddress": "",
    "timeZoneId": 1
  },
  {
    "id": 989,
    "addressLatitude": "25.4687224",
    "AddressLongitude": "-80.4775569",
    "city": "Homestead",
    "createdBy": 12359,
    "createdOn": "2019-03-12 09:46:33.300",
    "isActive": "1",
    "isCatastropheArea": "0",
    "isDeleted": "0",
    "latitude": "",
    "longitude": "",
    "name": "Miami",
    "postalCode": "33030",
    "radius": "40",
    "serviceRegionId": 34,
    "stateId": 10,
    "streetAddress": "",
    "timeZoneId": 1
  },
  {
    "id": 990,
    "addressLatitude": "26.132433",
    "AddressLongitude": "-81.7951054",
    "city": "Naples",
    "createdBy": 12359,
    "createdOn": "2019-03-12 09:47:09.833",
    "isActive": "1",
    "isCatastropheArea": "0",
    "isDeleted": "0",
    "latitude": "",
    "longitude": "",
    "name": "Naples",
    "postalCode": "34102",
    "radius": "60",
    "serviceRegionId": 34,
    "stateId": 10,
    "streetAddress": "",
    "timeZoneId": 1
  },
  {
    "id": 991,
    "addressLatitude": "30.4305062",
    "AddressLongitude": "-84.2542195",
    "city": "Tallahassee",
    "createdBy": 12359,
    "createdOn": "2019-03-12 09:47:49.083",
    "isActive": "1",
    "isCatastropheArea": "0",
    "isDeleted": "0",
    "latitude": "",
    "longitude": "",
    "name": "Tallahassee",
    "postalCode": "32301",
    "radius": "40",
    "serviceRegionId": 34,
    "stateId": 10,
    "streetAddress": "",
    "timeZoneId": 1
  },
  {
    "id": 992,
    "addressLatitude": "27.9401015",
    "AddressLongitude": "-82.4501944",
    "city": "Tampa",
    "createdBy": 12359,
    "createdOn": "2019-03-12 09:48:30.560",
    "isActive": "1",
    "isCatastropheArea": "0",
    "isDeleted": "0",
    "latitude": "",
    "longitude": "",
    "name": "Tampa",
    "postalCode": "33601",
    "radius": "60",
    "serviceRegionId": 34,
    "stateId": 10,
    "streetAddress": "",
    "timeZoneId": 1
  },
  {
    "id": 993,
    "addressLatitude": "28.5950986",
    "AddressLongitude": "-81.3509416",
    "city": "Orlando",
    "createdBy": 12359,
    "createdOn": "2019-03-12 10:52:57.847",
    "isActive": "1",
    "isCatastropheArea": "0",
    "isDeleted": "0",
    "latitude": "",
    "longitude": "",
    "name": "Orlando",
    "postalCode": "32789",
    "radius": "60",
    "serviceRegionId": 34,
    "stateId": 10,
    "streetAddress": "",
    "timeZoneId": 1
  },
  {
    "id": 994,
    "addressLatitude": "39.1041725",
    "AddressLongitude": "-94.5998517",
    "city": "Kansas City",
    "createdBy": 12359,
    "createdOn": "2019-03-12 13:54:32.053",
    "isActive": "1",
    "isCatastropheArea": "0",
    "isDeleted": "0",
    "latitude": "",
    "longitude": "",
    "name": "Kansas City",
    "postalCode": "64101",
    "radius": "49",
    "serviceRegionId": 35,
    "stateId": 26,
    "streetAddress": "",
    "timeZoneId": 1
  },
  {
    "id": 995,
    "addressLatitude": "38.623996",
    "AddressLongitude": "-90.1846217",
    "city": "St Louis",
    "createdBy": 12359,
    "createdOn": "2019-03-12 13:55:26.140",
    "isActive": "1",
    "isCatastropheArea": "0",
    "isDeleted": "0",
    "latitude": "",
    "longitude": "",
    "name": "St. Louis",
    "postalCode": "63102",
    "radius": "60",
    "serviceRegionId": 35,
    "stateId": 26,
    "streetAddress": "",
    "timeZoneId": 1
  },
  {
    "id": 996,
    "addressLatitude": "41.2674199",
    "AddressLongitude": "-96.0520363",
    "city": "Omaha",
    "createdBy": 12359,
    "createdOn": "2019-03-12 13:55:48.143",
    "isActive": "1",
    "isCatastropheArea": "0",
    "isDeleted": "0",
    "latitude": "",
    "longitude": "",
    "name": "Omaha",
    "postalCode": "68114",
    "radius": "40",
    "serviceRegionId": 35,
    "stateId": 28,
    "streetAddress": "",
    "timeZoneId": 1
  },
  {
    "id": 997,
    "addressLatitude": "40.8298688",
    "AddressLongitude": "-96.7012424",
    "city": "Lincoln",
    "createdBy": 12359,
    "createdOn": "2019-03-12 13:56:14.307",
    "isActive": "1",
    "isCatastropheArea": "0",
    "isDeleted": "0",
    "latitude": "",
    "longitude": "",
    "name": "Lincoln",
    "postalCode": "68508",
    "radius": "10",
    "serviceRegionId": 35,
    "stateId": 28,
    "streetAddress": "",
    "timeZoneId": 1
  },
  {
    "id": 998,
    "addressLatitude": "37.7564665",
    "AddressLongitude": "-97.4056928",
    "city": "Wichita",
    "createdBy": 12359,
    "createdOn": "2019-03-12 13:57:05.027",
    "isActive": "1",
    "isCatastropheArea": "0",
    "isDeleted": "0",
    "latitude": "",
    "longitude": "",
    "name": "Wichita",
    "postalCode": "67205",
    "radius": "60",
    "serviceRegionId": 35,
    "stateId": 17,
    "streetAddress": "",
    "timeZoneId": 1
  },
  {
    "id": 999,
    "addressLatitude": "37.294172",
    "AddressLongitude": "-93.2986106",
    "city": "Springfield",
    "createdBy": 12359,
    "createdOn": "2019-03-12 13:57:55.933",
    "isActive": "1",
    "isCatastropheArea": "0",
    "isDeleted": "0",
    "latitude": "",
    "longitude": "",
    "name": "Springfield",
    "postalCode": "65803",
    "radius": "60",
    "serviceRegionId": 35,
    "stateId": 26,
    "streetAddress": "",
    "timeZoneId": 1
  },
  {
    "id": 1000,
    "addressLatitude": "41.6",
    "AddressLongitude": "-93.61",
    "city": "Des Moines",
    "createdBy": 12359,
    "createdOn": "2019-03-12 14:01:03.303",
    "isActive": "0",
    "isCatastropheArea": "0",
    "isDeleted": "1",
    "latitude": "",
    "longitude": "",
    "name": "Des Moines",
    "postalCode": "50301",
    "radius": "60",
    "serviceRegionId": 27,
    "stateId": 16,
    "streetAddress": "",
    "timeZoneId": 1
  },
  {
    "id": 1001,
    "addressLatitude": "35.2045402",
    "AddressLongitude": "-101.8407065",
    "city": "Amarillo",
    "createdBy": 12359,
    "createdOn": "2019-03-14 17:58:33.533",
    "isActive": "1",
    "isCatastropheArea": "0",
    "isDeleted": "0",
    "latitude": "",
    "longitude": "",
    "name": "Amarillo",
    "postalCode": "79101",
    "radius": "60",
    "serviceRegionId": 17,
    "stateId": 44,
    "streetAddress": "",
    "timeZoneId": 1
  },
  {
    "id": 1002,
    "addressLatitude": "31.9916009",
    "AddressLongitude": "-102.0832543",
    "city": "Midland",
    "createdBy": 12359,
    "createdOn": "2019-03-14 17:59:32.470",
    "isActive": "1",
    "isCatastropheArea": "0",
    "isDeleted": "0",
    "latitude": "",
    "longitude": "",
    "name": "Midland",
    "postalCode": "79701",
    "radius": "60",
    "serviceRegionId": 17,
    "stateId": 44,
    "streetAddress": "",
    "timeZoneId": 1
  },
  {
    "id": 1003,
    "addressLatitude": "41.6",
    "AddressLongitude": "-93.61",
    "city": "Des Moines",
    "createdBy": 12359,
    "createdOn": "2019-03-18 13:25:40.477",
    "isActive": "1",
    "isCatastropheArea": "0",
    "isDeleted": "0",
    "latitude": "",
    "longitude": "",
    "name": "Des Moines",
    "postalCode": "50301",
    "radius": "60",
    "serviceRegionId": 27,
    "stateId": 16,
    "streetAddress": "",
    "timeZoneId": 1
  },
  {
    "id": 1004,
    "addressLatitude": "41.585543",
    "AddressLongitude": "-90.7743819",
    "city": "Walcott",
    "createdBy": 12359,
    "createdOn": "2019-03-18 13:28:50.677",
    "isActive": "1",
    "isCatastropheArea": "0",
    "isDeleted": "0",
    "latitude": "",
    "longitude": "",
    "name": "Davenport",
    "postalCode": "52773",
    "radius": "20",
    "serviceRegionId": 27,
    "stateId": 16,
    "streetAddress": "",
    "timeZoneId": 1
  },
  {
    "id": 1005,
    "addressLatitude": "38.6134841",
    "AddressLongitude": "-92.086133",
    "city": "Jefferson City",
    "createdBy": 12359,
    "createdOn": "2019-03-22 10:18:11.480",
    "isActive": "1",
    "isCatastropheArea": "0",
    "isDeleted": "0",
    "latitude": "",
    "longitude": "",
    "name": "Jefferson City",
    "postalCode": "65043",
    "radius": "45",
    "serviceRegionId": 35,
    "stateId": 26,
    "streetAddress": "",
    "timeZoneId": 1
  },
  {
    "id": 1006,
    "addressLatitude": "26.6188279",
    "AddressLongitude": "-80.0590804",
    "city": "Lake Worth",
    "createdBy": 12359,
    "createdOn": "2019-04-17 08:28:34.640",
    "isActive": "1",
    "isCatastropheArea": "0",
    "isDeleted": "0",
    "latitude": "",
    "longitude": "",
    "name": "Ft. Lauderdale",
    "postalCode": "33460",
    "radius": "45",
    "serviceRegionId": 34,
    "stateId": 10,
    "streetAddress": "",
    "timeZoneId": 1
  },
  {
    "id": 1007,
    "addressLatitude": "43.8595945",
    "AddressLongitude": "-92.4801989",
    "city": "Rochester ",
    "createdBy": 12359,
    "createdOn": "2019-05-01 12:43:21.417",
    "isActive": "1",
    "isCatastropheArea": "0",
    "isDeleted": "0",
    "latitude": "",
    "longitude": "",
    "name": "Rochester ",
    "postalCode": "55976",
    "radius": "25",
    "serviceRegionId": 16,
    "stateId": 24,
    "streetAddress": "",
    "timeZoneId": 1
  },
  {
    "id": 1008,
    "addressLatitude": "41.1280414",
    "AddressLongitude": "-80.6715317",
    "city": "Youngstown",
    "createdBy": 12359,
    "createdOn": "2019-05-01 13:09:30.323",
    "isActive": "1",
    "isCatastropheArea": "0",
    "isDeleted": "0",
    "latitude": "",
    "longitude": "",
    "name": "Youngstown",
    "postalCode": "44510",
    "radius": "25",
    "serviceRegionId": 15,
    "stateId": 36,
    "streetAddress": "",
    "timeZoneId": 1
  },
  {
    "id": 1009,
    "addressLatitude": "30.217722",
    "AddressLongitude": "-85.873469",
    "city": "Pensacola ",
    "createdBy": 12359,
    "createdOn": "2019-07-01 11:57:29.367",
    "isActive": "1",
    "isCatastropheArea": "0",
    "isDeleted": "0",
    "latitude": "",
    "longitude": "",
    "name": "Pensacola ",
    "postalCode": "32413",
    "radius": "60",
    "serviceRegionId": 34,
    "stateId": 10,
    "streetAddress": "",
    "timeZoneId": 1
  },
  {
    "id": 1010,
    "addressLatitude": "35.2970353",
    "AddressLongitude": "-94.0363153",
    "city": "Charleston",
    "createdBy": 12359,
    "createdOn": "2019-07-22 13:35:38.367",
    "isActive": "1",
    "isCatastropheArea": "0",
    "isDeleted": "0",
    "latitude": "",
    "longitude": "",
    "name": "Fort Smith",
    "postalCode": "72933",
    "radius": "30",
    "serviceRegionId": 13,
    "stateId": 4,
    "streetAddress": "",
    "timeZoneId": 1
  },
  {
    "id": 1011,
    "addressLatitude": "30.4483779",
    "AddressLongitude": "-91.188708",
    "city": "Baton Rouge ",
    "createdBy": 12359,
    "createdOn": "2019-07-26 08:30:32.757",
    "isActive": "1",
    "isCatastropheArea": "0",
    "isDeleted": "0",
    "latitude": "",
    "longitude": "",
    "name": "Baton Rouge ",
    "postalCode": "70801",
    "radius": "60",
    "serviceRegionId": 13,
    "stateId": 19,
    "streetAddress": "",
    "timeZoneId": 1
  },
  {
    "id": 1012,
    "addressLatitude": "39.9077086",
    "AddressLongitude": "-94.9247074",
    "city": "Saint Joseph",
    "createdBy": 12359,
    "createdOn": "2019-07-26 10:37:24.010",
    "isActive": "1",
    "isCatastropheArea": "0",
    "isDeleted": "0",
    "latitude": "",
    "longitude": "",
    "name": "Saint Joseph",
    "postalCode": "64421",
    "radius": "25",
    "serviceRegionId": 35,
    "stateId": 26,
    "streetAddress": "",
    "timeZoneId": 1
  },
  {
    "id": 1013,
    "addressLatitude": "45.8781756",
    "AddressLongitude": "-108.4680798",
    "city": "Billings",
    "createdBy": 12359,
    "createdOn": "2019-08-12 14:40:02.877",
    "isActive": "1",
    "isCatastropheArea": "0",
    "isDeleted": "0",
    "latitude": "",
    "longitude": "",
    "name": "Billings",
    "postalCode": "59105",
    "radius": "60",
    "serviceRegionId": 18,
    "stateId": 27,
    "streetAddress": "",
    "timeZoneId": 1
  },
  {
    "id": 1014,
    "addressLatitude": "27.7954993",
    "AddressLongitude": "-80.4882672",
    "city": "Sebastian",
    "createdBy": 12359,
    "createdOn": "2019-08-30 08:48:59.537",
    "isActive": "1",
    "isCatastropheArea": "0",
    "isDeleted": "0",
    "latitude": "",
    "longitude": "",
    "name": "Melbourne",
    "postalCode": "32958",
    "radius": "45",
    "serviceRegionId": 34,
    "stateId": 10,
    "streetAddress": "",
    "timeZoneId": 1
  },
  {
    "id": 1015,
    "addressLatitude": "33.9419813",
    "AddressLongitude": "-84.1257513",
    "city": "duluth",
    "createdBy": 39629,
    "createdOn": "2020-09-16 17:13:13.830",
    "isActive": "1",
    "isCatastropheArea": "0",
    "isDeleted": "0",
    "latitude": "",
    "longitude": "",
    "name": "Test",
    "postalCode": "30096",
    "radius": "50",
    "serviceRegionId": 11,
    "stateId": 11,
    "streetAddress": "test",
    "timeZoneId": 1
  },
  {
    "id": 1016,
    "addressLatitude": "34.0226474",
    "AddressLongitude": "-85.2557533",
    "city": "College Park",
    "createdBy": 50911,
    "createdOn": "2021-06-10 09:11:25.940",
    "isActive": "1",
    "isCatastropheArea": "0",
    "isDeleted": "0",
    "latitude": "",
    "longitude": "",
    "name": "New",
    "postalCode": "30125",
    "radius": "2000",
    "serviceRegionId": 11,
    "stateId": 11,
    "streetAddress": "",
    "timeZoneId": 1
  }
]
